,16,00,000,,05,00,000,,01,00,000,,26,00,000,*7D
$GPRMC,000002.056,V,0000.0000,N,00000.0000,E,,0.00,110905,,,N*65
$GPGGA,000003.056,0000.0000,N,00000.0000,E,0,00,,0.0,M,0.0,M,,0000*43
$GPGSA,A,1,,,,,,,,,,,,,,,*1E
$GPRMC,000003.056,V,0000.0000,N,00000.0000,E,,0.00,110905,,,N*64
$GPGGA,000004.056,0000.0000,N,00000.0000,E,0,00,,0.0,M,0.0,M,,0000*44
$GPGSA,A,1,,,,,,,,,,,,,,,*1E
$GPRMC,000004.056,V,0000.0000,N,00000.0000,E,,0.00,110905,,,N*63
$GPGGA,000005.056,0000.0000,N,00000.0000,E,0,00,,0.0,M,0.0,M,,0000*45
$GPGSA,A,1,,,,,,,,,,,,,,,*1E
$GPRMC,000005.056,V,0000.0000,N,00000.0000,E,,0.00,110905,,,N*62
$GPGGA,000006.056,0000.0000,N,00000.0000,E,0,00,,0.0,M,0.0,M,,0000*46
$GPGSA,A,1,,,,,,,,,,,,,,,*1E
$GPRMC,000006.056,V,0000.0000,N,00000.0000,E,,0.00,110905,,,N*61
$GPGGA,000007.056,0000.0000,N,00000.0000,E,0,00,,0.0,M,0.0,M,,0000*47
$GPGSA,A,1,,,,,,,,,,,,,,,*1E
$GPGSV,3,1,12,20,00,000,,10,00,000,,25,00,000,25,27,00,000,*7E
$GPGSV,3,2,12,03,00,000,,31,00,000,,24,00,000,,15,00,000,*78
$GPGSV,3,3,12,16,00,000,,05,00,000,,01,00,000,,26,00,000,*7D
$GPRMC,000007.056,V,0000.0000,N,00000.0000,E,,0.00,110905,,,N*60
$GPGGA,000008.056,0000.0000,N,00000.0000,E,0,00,,0.0,M,0.0,M,,0000*48
$GPGSA,A,1,,,,,,,,,,,,,,,*1E
$GPRMC,000008.056,V,0000.0000,N,00000.0000,E,,0.00,110905,,,N*6F
$GPGGA,172406.645,0000.0000,N,00000.0000,E,0,00,,0.0,M,0.0,M,,0000*42
$GPGSA,A,1,,,,,,,,,,,,,,,*1E
$GPRMC,172406.645,V,0000.0000,N,00000.0000,E,,0.00,170905,,,N*63
$GPGGA,172407.445,0000.0000,N,00000.0000,E,0,00,,0.0,M,0.0,M,,0000*41
$GPGSA,A,1,,,,,,,,,,,,,,,*1E
$GPRMC,172407.445,V,0000.0000,N,00000.0000,E,,0.00,170905,,,N*60
$GPGGA,172408.445,0000.0000,N,00000.0000,E,0,00,,0.0,M,0.0,M,,0000*4E
$GPGSA,A,1,,,,,,,,,,,,,,,*1E
$GPRMC,172408.445,V,0000.0000,N,00000.0000,E,,0.00,170905,,,N*6F
$GPGGA,172409.445,0000.0000,N,00000.0000,E,0,00,,0.0,M,0.0,M,,0000*4F
$GPGSA,A,1,,,,,,,,,,,,,,,*1E
$GPGSV,3,1,12,06,70,000,29,07,47,000,,25,43,000,25,30,41,000,*77
$GPGSV,3,2,12,01,34,000,,24,33,000,,21,32,000,35,16,32,000,*79
$GPGSV,3,3,12,14,23,000,,15,12,000,,23,00,000,,09,-1,000,*6D
$GPRMC,172409.445,V,0000.0000,N,00000.0000,E,,0.00,170905,,,N*6E
$GPGGA,172410.445,0000.0000,N,00000.0000,E,0,00,,0.0,M,0.0,M,,0000*47
$GPGSA,A,1,,,,,,,,,,,,,,,*1E
$GPRMC,172410.445,V,0000.0000,N,00000.0000,E,,0.00,170905,,,N*66
$GPGGA,172411.445,0000.0000,N,00000.0000,E,0,00,,0.0,M,0.0,M,,0000*46
$GPGSA,A,1,,,,,,,,,,,,,,,*1E
$GPRMC,172411.445,V,0000.0000,N,00000.0000,E,,0.00,170905,,,N*67
$GPGGA,172412.445,0000.0000,N,00000.0000,E,0,00,,0.0,M,0.0,M,,0000*45
$GPGSA,A,1,,,,,,,,,,,,,,,*1E
$GPRMC,172412.445,V,0000.0000,N,00000.0000,E,,0.00,170905,,,N*64
$GPGGA,172413.446,0000.0000,N,00000.0000,E,0,00,,0.0,M,0.0,M,,0000*47
$GPGSA,A,1,,,,,,,,,,,,,,,*1E
$GPRMC,172413.446,V,0000.0000,N,00000.0000,E,,0.00,170905,,,N*66
$GPGGA,172414.446,0000.0000,N,00000.0000,E,0,00,,0.0,M,0.0,M,,0000*40
$GPGSA,A,1,,,,,,,,,,,,,,,*1E
$GPGSV,3,1,12,06,70,000,30,07,47,000,,25,43,000,26,30,41,000,*7C
$GPGSV,3,2,12,01,34,000,,24,33,000,,21,32,000,36,16,32,000,*7A
$GPGSV,3,3,12,14,23,000,,15,12,000,,23,00,000,,09,-1,000,*6D
$GPRMC,172414.446,V,0000.0000,N,00000.0000,E,,0.00,170905,,,N*61
$GPGGA,172415.446,0000.0000,N,00000.0000,E,0,00,,0.0,M,0.0,M,,0000*41
$GPGSA,A,1,,,,,,,,,,,,,,,*1E
$GPRMC,172415.446,V,0000.0000,N,00000.0000,E,,0.00,170905,,,N*60
$GPGGA,172416.446,0000.0000,N,00000.0000,E,0,00,,0.0,M,0.0,M,,0000*42
$GPGSA,A,1,,,,,,,,,,,,,,,*1E
$GPRMC,172416.446,V,0000.0000,N,00000.0000,E,,0.00,170905,,,N*63
$GPGGA,172417.446,0000.0000,N,00000.0000,E,0,00,,0.0,M,0.0,M,,0000*43
$GPGSA,A,1,,,,,,,,,,,,,,,*1E
$GPRMC,172417.446,V,0000.0000,N,00000.0000,E,,0.00,170905,,,N*62
$GPGGA,172418.446,0000.0000,N,00000.0000,E,0,00,,0.0,M,0.0,M,,0000*4C
$GPGSA,A,1,,,,,,,,,,,,,,,*1E
$GPRMC,172418.446,V,0000.0000,N,00000.0000,E,,0.00,170905,,,N*6D
$GPGGA,172419.446,0000.0000,N,00000.0000,E,0,00,,0.0,M,0.0,M,,0000*4D
$GPGSA,A,1,,,,,,,,,,,,,,,*1E
$GPGSV,3,1,12,07,52,000,,21,50,000,36,06,50,000,31,14,39,000,*75
$GPGSV,3,2,12,01,36,000,,30,31,000,,15,31,000,39,25,28,000,27*7A
$GPGSV,3,3,12,24,25,000,,16,20,000,,09,11,000,,18,06,000,*78
$GPRMC,172419.446,V,0000.0000,N,00000.0000,E,,0.00,170905,,,N*6C
$GPGGA,172420.446,0000.0000,N,00000.0000,E,0,00,,0.0,M,0.0,M,,0000*47
$GPGSA,A,1,,,,,,,,,,,,,,,*1E
$GPRMC,172420.446,V,0000.0000,N,00000.0000,E,,0.00,170905,,,N*66
$GPGGA,172421.446,0000.0000,N,00000.0000,E,0,00,,0.0,M,0.0,M,,0000*46
$GPGSA,A,1,,,,,,,,,,,,,,,*1E
$GPRMC,172421.446,V,0000.0000,N,00000.0000,E,,0.00,170905,,,N*67
$GPGGA,172422.446,0000.0000,N,00000.0000,E,0,00,,0.0,M,0.0,M,,0000*45
$GPGSA,A,1,,,,,,,,,,,,,,,*1E
$GPRMC,172422.446,V,0000.0000,N,00000.0000,E,,0.00,170905,,,N*64
$GPGGA,172423.446,0000.0000,N,00000.0000,E,0,00,,0.0,M,0.0,M,,0000*44
$GPGSA,A,1,,,,,,,,,,,,,,,*1E
$GPRMC,172423.446,V,0000.0000,N,00000.0000,E,,0.00,300906,,,N*63
$GPGGA,172424.446,0000.0000,N,00000.0000,E,0,00,,0.0,M,0.0,M,,0000*43
$GPGSA,A,1,,,,,,,,,,,,,,,*1E
$GPGSV,3,1,12,21,79,000,37,15,70,000,39,07,48,000,,25,43,000,27*76
$GPGSV,3,2,12,06,37,000,32,16,33,000,,30,29,000,,18,25,000,*79
$GPGSV,3,3,12,03,10,000,,22,09,000,,10,-1,000,,01,-3,000,*73
$GPRMC,172424.446,V,0000.0000,N,00000.0000,E,,0.00,300906,,,N*64
$GPGGA,172425.446,0000.0000,N,00000.0000,E,0,00,,0.0,M,0.0,M,,0000*42
$GPGSA,A,1,,,,,,,,,,,,,,,*1E
$GPRMC,172425.446,V,0000.0000,N,00000.0000,E,,0.00,300906,,,N*65
$GPGGA,172426.446,0000.0000,N,00000.0000,E,0,00,,0.0,M,0.0,M,,0000*41
$GPGSA,A,1,,,,,,,,,,,,,,,*1E
$GPRMC,172426.446,V,0000.0000,N,00000.0000,E,,0.00,300906,,,N*66
$GPGGA,172427.446,0000.0000,N,00000.0000,E,0,00,,0.0,M,0.0,M,,0000*40
$GPGSA,A,1,,,,,,,,,,,,,,,*1E
$GPRMC,172427.446,V,0000.0000,N,00000.0000,E,,0.00,300906,,,N*67
$GPGGA,172428.446,0000.0000,N,00000.0000,E,0,00,,0.0,M,0.0,M,,0000*4F
$GPGSA,A,1,,,,,,,,,,,,,,,*1E
$GPRMC,172428.446,V,0000.0000,N,00000.0000,E,,0.00,300906,,,N*68
$GPGGA,172429.446,0000.0000,N,00000.0000,E,0,00,,0.0,M,0.0,M,,0000*4E
$GPGSA,A,1,,,,,,,,,,,,,,,*1E
$GPGSV,3,1,12,21,79,000,36,15,70,000,39,07,48,000,,25,43,000,27*77
$GPGSV,3,2,12,06,37,000,31,16,33,000,,30,29,000,,18,25,000,*7A
$GPGSV,3,3,12,03,10,000,,22,09,000,,10,-1,000,,01,-3,000,*73
$GPRMC,172429.446,V,0000.0000,N,00000.0000,E,,0.00,300906,,,N*69
$GPGGA,172430.445,0000.0000,N,00000.0000,E,0,00,,0.0,M,0.0,M,,0000*45
$GPGSA,A,1,,,,,,,,,,,,,,,*1E
$GPRMC,172430.445,V,0000.0000,N,00000.0000,E,,0.00,300906,,,N*62
$GPGGA,172431.445,0000.0000,N,00000.0000,E,0,00,,0.0,M,0.0,M,,0000*44
$GPGSA,A,1,,,,,,,,,,,,,,,*1E
$GPRMC,172431.445,V,0000.0000,N,00000.0000,E,,0.00,300906,,,N*63
$GPGGA,172432.445,0000.0000,N,00000.0000,E,0,00,,0.0,M,0.0,M,,0000*47
$GPGSA,A,1,,,,,,,,,,,,,,,*1E
$GPRMC,172432.445,V,0000.0000,N,00000.0000,E,,0.00,300906,,,N*60
$GPGGA,172433.445,0000.0000,N,00000.0000,E,0,00,,0.0,M,0.0,M,,0000*46
$GPGSA,A,1,,,,,,,,,,,,,,,*1E
$GPRMC,172433.445,V,0000.0000,N,00000.0000,E,,0.00,300906,,,N*61
$GPGGA,172434.445,0000.0000,N,00000.0000,E,0,00,,0.0,M,0.0,M,,0000*41
$GPGSA,A,1,,,,,,,,,,,,,,,*1E
$GPGSV,3,1,12,21,79,000,36,15,70,000,38,07,48,000,,25,43,000,27*76
$GPGSV,3,2,12,06,37,000,31,16,33,000,,30,29,000,,18,25,000,*7A
$GPGSV,3,3,12,03,10,000,,22,09,000,,10,-1,000,,01,-3,000,*73
$GPRMC,172434.445,V,0000.0000,N,00000.0000,E,,0.00,300906,,,N*66
$GPGGA,172435.445,0000.0000,N,00000.0000,E,0,00,,0.0,M,0.0,M,,0000*40
$GPGSA,A,1,,,,,,,,,,,,,,,*1E
$GPRMC,172435.445,V,0000.0000,N,00000.0000,E,,0.00,300906,,,N*67
$GPGGA,172436.445,0000.0000,N,00000.0000,E,0,00,,0.0,M,0.0,M,,0000*43
$GPGSA,A,1,,,,,,,,,,,,,,,*1E
$GPRMC,172436.445,V,0000.0000,N,00000.0000,E,,0.00,300906,,,N*64
$GPGGA,172437.345,0000.0000,N,00000.0000,E,0,00,,0.0,M,0.0,M,,0000*45
$GPGSA,A,1,,,,,,,,,,,,,,,*1E
$GPRMC,172437.345,V,0000.0000,N,00000.0000,E,,0.00,300906,,,N*62
$GPGGA,172438.446,0000.0000,N,00000.0000,E,0,00,,0.0,M,0.0,M,,0000*4E
$GPGSA,A,1,,,,,,,,,,,,,,,*1E
$GPRMC,172438.446,V,0000.0000,N,00000.0000,E,,0.00,300906,,,N*69
$GPGGA,172439.446,0000.0000,N,00000.0000,E,0,00,,0.0,M,0.0,M,,0000*4F
$GPGSA,A,1,,,,,,,,,,,,,,,*1E
$GPGSV,3,1,12,21,79,000,35,15,70,000,38,07,48,000,,25,43,000,27*75
$GPGSV,3,2,12,06,37,000,29,16,33,000,,30,29,000,,18,25,000,28*79
$GPGSV,3,3,12,03,10,000,26,22,09,000,,10,-1,000,,01,-3,000,*77
$GPRMC,172439.446,V,0000.0000,N,00000.0000,E,,0.00,300906,,,N*68
$GPGGA,172440.450,0000.0000,N,00000.0000,E,0,00,,0.0,M,0.0,M,,0000*46
$GPGSA,A,1,,,,,,,,,,,,,,,*1E
$GPRMC,172440.450,V,0000.0000,N,00000.0000,E,,0.00,300906,,,N*61
$GPGGA,172441.450,0000.0000,N,00000.0000,E,0,00,,0.0,M,0.0,M,,0000*47
$GPGSA,A,1,,,,,,,,,,,,,,,*1E
$GPRMC,172441.450,V,0000.0000,N,00000.0000,E,,0.00,300906,,,N*60
$GPGGA,172442.446,0000.0000,N,00000.0000,E,0,00,,0.0,M,0.0,M,,0000*43
$GPGSA,A,1,,,,,,,,,,,,,,,*1E
$GPRMC,172442.446,V,0000.0000,N,00000.0000,E,,0.00,300906,,,N*64
$GPGGA,172443.446,0000.0000,N,00000.0000,E,0,00,,0.0,M,0.0,M,,0000*42
$GPGSA,A,1,,,,,,,,,,,,,,,*1E
$GPRMC,172443.446,V,0000.0000,N,00000.0000,E,,0.00,300906,,,N*65
$GPGGA,172444.446,0000.0000,N,00000.0000,E,0,00,,0.0,M,0.0,M,,0000*45
$GPGSA,A,1,,,,,,,,,,,,,,,*1E
$GPGSV,3,1,12,21,79,000,36,15,70,000,38,07,48,000,,25,43,000,26*77
$GPGSV,3,2,12,06,37,000,30,16,33,000,,30,29,000,,18,25,000,28*71
$GPGSV,3,3,12,03,10,000,26,22,09,000,,10,-1,000,,01,-3,000,*77
$GPRMC,172444.446,V,0000.0000,N,00000.0000,E,,0.00,300906,,,N*62
$GPGGA,172445.446,0000.0000,N,00000.0000,E,0,00,,0.0,M,0.0,M,,0000*44
$GPGSA,A,1,,,,,,,,,,,,,,,*1E
$GPRMC,172445.446,V,0000.0000,N,00000.0000,E,,0.00,300906,,,N*63
$GPGGA,172446.446,0000.0000,N,00000.0000,E,0,00,,0.0,M,0.0,M,,0000*47
$GPGSA,A,1,,,,,,,,,,,,,,,*1E
$GPRMC,172446.446,V,0000.0000,N,00000.0000,E,,0.00,300906,,,N*60
$GPGGA,172447.446,0000.0000,N,00000.0000,E,0,00,,0.0,M,0.0,M,,0000*46
$GPGSA,A,1,,,,,,,,,,,,,,,*1E
$GPRMC,172447.446,V,0000.0000,N,00000.0000,E,,0.00,300906,,,N*61
$GPGGA,172448.446,0000.0000,N,00000.0000,E,0,00,,0.0,M,0.0,M,,0000*49
$GPGSA,A,1,,,,,,,,,,,,,,,*1E
$GPRMC,172448.446,V,0000.0000,N,00000.0000,E,,0.00,300906,,,N*6E
$GPGGA,172449.446,0000.0000,N,00000.0000,E,0,00,,0.0,M,0.0,M,,0000*48
$GPGSA,A,1,,,,,,,,,,,,,,,*1E
$GPGSV,3,1,12,21,79,000,36,15,70,000,39,07,48,000,,25,43,000,26*76
$GPGSV,3,2,12,06,37,000,30,16,33,000,,30,29,000,,18,25,000,27*7E
$GPGSV,3,3,12,03,10,000,26,22,09,000,,10,-1,000,,01,-3,000,*77
$GPRMC,172449.446,V,0000.0000,N,00000.0000,E,,0.00,300906,,,N*6F
$GPGGA,172450.446,0000.0000,N,00000.0000,E,0,00,,0.0,M,0.0,M,,0000*40
$GPGSA,A,1,,,,,,,,,,,,,,,*1E
$GPRMC,172450.446,V,0000.0000,N,00000.0000,E,,0.00,300906,,,N*67
$GPGGA,172451.446,0000.0000,N,00000.0000,E,0,00,,0.0,M,0.0,M,,0000*41
$GPGSA,A,1,,,,,,,,,,,,,,,*1E
$GPRMC,172451.446,V,0000.0000,N,00000.0000,E,,0.00,300906,,,N*66
$GPGGA,172452.446,0000.0000,N,00000.0000,E,0,00,,0.0,M,0.0,M,,0000*42
$GPGSA,A,1,,,,,,,,,,,,,,,*1E
$GPRMC,172452.446,V,0000.0000,N,00000.0000,E,,0.00,300906,,,N*65
$GPGGA,172453.446,0000.0000,N,00000.0000,E,0,00,,0.0,M,0.0,M,,0000*43
$GPGSA,A,1,,,,,,,,,,,,,,,*1E
$GPRMC,172453.446,V,0000.0000,N,00000.0000,E,,0.00,300906,,,N*64
$GPGGA,172454.450,0000.0000,N,00000.0000,E,0,00,,0.0,M,0.0,M,,0000*43
$GPGSA,A,1,,,,,,,,,,,,,,,*1E
$GPGSV,3,1,12,21,79,000,35,15,70,000,39,07,48,000,,25,43,000,26*75
$GPGSV,3,2,12,06,37,000,30,16,33,000,,30,29,000,,18,25,000,26*7F
$GPGSV,3,3,12,03,10,000,25,22,09,000,,10,-1,000,,01,-3,000,*74
$GPRMC,172454.450,V,0000.0000,N,00000.0000,E,,0.00,300906,,,N*64
$GPGGA,172455.450,0000.0000,N,00000.0000,E,0,00,,0.0,M,0.0,M,,0000*42
$GPGSA,A,1,,,,,,,,,,,,,,,*1E
$GPRMC,172455.450,V,0000.0000,N,00000.0000,E,,0.00,300906,,,N*65
$GPGGA,172456.446,0000.0000,N,00000.0000,E,0,00,,0.0,M,0.0,M,,0000*46
$GPGSA,A,1,,,,,,,,,,,,,,,*1E
$GPRMC,172456.446,V,0000.0000,N,00000.0000,E,,0.00,300906,,,N*61
$GPGGA,172457.450,0000.0000,N,00000.0000,E,0,00,,0.0,M,0.0,M,,0000*40
$GPGSA,A,1,,,,,,,,,,,,,,,*1E
$GPRMC,172457.450,V,0000.0000,N,00000.0000,E,,0.00,300906,,,N*67
$GPGGA,172458.450,0000.0000,N,00000.0000,E,0,00,,0.0,M,0.0,M,,0000*4F
$GPGSA,A,1,,,,,,,,,,,,,,,*1E
$GPRMC,172458.450,V,0000.0000,N,00000.0000,E,,0.00,300906,,,N*68
$GPGGA,172459.446,0000.0000,N,00000.0000,E,0,00,,0.0,M,0.0,M,,0000*49
$GPGSA,A,1,,,,,,,,,,,,,,,*1E
$GPGSV,3,1,12,21,79,000,35,15,70,000,39,07,48,000,,25,43,000,26*75
$GPGSV,3,2,12,06,37,000,30,16,33,000,,30,29,000,,18,25,000,25*7C
$GPGSV,3,3,12,03,10,000,25,22,09,000,,10,-1,000,,01,-3,000,*74
$GPRMC,172459.446,V,0000.0000,N,00000.0000,E,,0.00,300906,,,N*6E
$GPGGA,172500.446,0000.0000,N,00000.0000,E,0,00,,0.0,M,0.0,M,,0000*44
$GPGSA,A,1,,,,,,,,,,,,,,,*1E
$GPRMC,172500.446,V,0000.0000,N,00000.0000,E,,0.00,300906,,,N*63
$GPGGA,172501.450,0000.0000,N,00000.0000,E,0,00,,0.0,M,0.0,M,,0000*42
$GPGSA,A,1,,,,,,,,,,,,,,,*1E
$GPRMC,172501.450,V,0000.0000,N,00000.0000,E,,0.00,300906,,,N*65
$GPGGA,172502.446,0000.0000,N,00000.0000,E,0,00,,0.0,M,0.0,M,,0000*46
$GPGSA,A,1,,,,,,,,,,,,,,,*1E
$GPRMC,172502.446,V,0000.0000,N,00000.0000,E,,0.00,300906,,,N*61
$GPGGA,172503.446,0000.0000,N,00000.0000,E,0,00,,0.0,M,0.0,M,,0000*47
$GPGSA,A,1,,,,,,,,,,,,,,,*1E
$GPRMC,172503.446,V,0000.0000,N,00000.0000,E,,0.00,300906,,,N*60
$GPGGA,172504.450,0000.0000,N,00000.0000,E,0,00,,0.0,M,0.0,M,,0000*47
$GPGSA,A,1,,,,,,,,,,,,,,,*1E
$GPGSV,3,1,12,21,79,000,35,15,70,000,39,07,48,000,,25,43,000,26*75
$GPGSV,3,2,12,06,37,000,30,16,33,000,,30,29,000,,18,25,000,25*7C
$GPGSV,3,3,12,03,10,000,25,22,09,000,,10,-1,000,,01,-3,000,*74
$GPRMC,172504.450,V,0000.0000,N,00000.0000,E,,0.00,300906,,,N*60
$GPGGA,172505.447,0000.0000,N,00000.0000,E,0,00,,0.0,M,0.0,M,,0000*40
$GPGSA,A,1,,,,,,,,,,,,,,,*1E
$GPRMC,172505.447,V,0000.0000,N,00000.0000,E,,0.00,300906,,,N*67
$GPGGA,172506.447,0000.0000,N,00000.0000,E,0,00,,0.0,M,0.0,M,,0000*43
$GPGSA,A,1,,,,,,,,,,,,,,,*1E
$GPRMC,172506.447,V,0000.0000,N,00000.0000,E,,0.00,300906,,,N*64
$GPGGA,172507.451,0000.0000,N,00000.0000,E,0,00,,0.0,M,0.0,M,,0000*45
$GPGSA,A,1,,,,,,,,,,,,,,,*1E
$GPRMC,172507.451,V,0000.0000,N,00000.0000,E,,0.00,300906,,,N*62
$GPGGA,172508.447,0000.0000,N,00000.0000,E,0,00,,0.0,M,0.0,M,,0000*4D
$GPGSA,A,1,,,,,,,,,,,,,,,*1E
$GPRMC,172508.447,V,0000.0000,N,00000.0000,E,,0.00,300906,,,N*6A
$GPGGA,172509.451,0000.0000,N,00000.0000,E,0,00,,0.0,M,0.0,M,,0000*4B
$GPGSA,A,1,,,,,,,,,,,,,,,*1E
$GPGSV,3,1,12,21,79,000,34,15,70,000,38,07,48,000,,25,43,000,26*75
$GPGSV,3,2,12,06,37,000,30,16,33,000,,30,29,000,,18,25,000,25*7C
$GPGSV,3,3,12,03,10,000,24,22,09,000,,10,-1,000,,01,-3,000,*75
$GPRMC,172509.451,V,0000.0000,N,00000.0000,E,,0.00,300906,,,N*6C
$GPGGA,172510.451,0000.0000,N,00000.0000,E,0,00,,0.0,M,0.0,M,,0000*43
$GPGSA,A,1,,,,,,,,,,,,,,,*1E
$GPRMC,172510.451,V,0000.0000,N,00000.0000,E,,0.00,300906,,,N*64
$GPGGA,172511.447,0000.0000,N,00000.0000,E,0,00,,0.0,M,0.0,M,,0000*45
$GPGSA,A,1,,,,,,,,,,,,,,,*1E
$GPRMC,172511.447,V,0000.0000,N,00000.0000,E,,0.00,300906,,,N*62
$GPGGA,172512.451,0000.0000,N,00000.0000,E,0,00,,0.0,M,0.0,M,,0000*41
$GPGSA,A,1,,,,,,,,,,,,,,,*1E
$GPRMC,172512.451,V,0000.0000,N,00000.0000,E,,0.00,300906,,,N*66
$GPGGA,172513.451,0000.0000,N,00000.0000,E,0,00,,0.0,M,0.0,M,,0000*40
$GPGSA,A,1,,,,,,,,,,,,,,,*1E
$GPRMC,172513.451,V,0000.0000,N,00000.0000,E,,0.00,300906,,,N*67
$GPGGA,172514.447,0000.0000,N,00000.0000,E,0,00,,0.0,M,0.0,M,,0000*40
$GPGSA,A,1,,,,,,,,,,,,,,,*1E
$GPGSV,3,1,12,21,79,000,34,15,70,000,38,07,48,000,,25,43,000,26*75
$GPGSV,3,2,12,06,37,000,30,16,33,000,,30,29,000,,18,25,000,25*7C
$GPGSV,3,3,12,03,10,000,19,22,09,000,,10,-1,000,,01,-3,000,*7B
$GPRMC,172514.447,V,0000.0000,N,00000.0000,E,,0.00,300906,,,N*67
$GPGGA,172515.451,0000.0000,N,00000.0000,E,0,00,,0.0,M,0.0,M,,0000*46
$GPGSA,A,1,,,,,,,,,,,,,,,*1E
$GPRMC,172515.451,V,0000.0000,N,00000.0000,E,,0.00,300906,,,N*61
$GPGGA,172516.451,0000.0000,N,00000.0000,E,0,00,,0.0,M,0.0,M,,0000*45
$GPGSA,A,1,,,,,,,,,,,,,,,*1E
$GPRMC,172516.451,V,0000.0000,N,00000.0000,E,,0.00,300906,,,N*62
$GPGGA,172517.447,0000.0000,N,00000.0000,E,0,00,,0.0,M,0.0,M,,0000*43
$GPGSA,A,1,,,,,,,,,,,,,,,*1E
$GPRMC,172517.447,V,0000.0000,N,00000.0000,E,,0.00,300906,,,N*64
$GPGGA,172518.451,0000.0000,N,00000.0000,E,0,00,,0.0,M,0.0,M,,0000*4B
$GPGSA,A,1,,,,,,,,,,,,,,,*1E
$GPRMC,172518.451,V,0000.0000,N,00000.0000,E,,0.00,300906,,,N*6C
$GPGGA,172519.451,0000.0000,N,00000.0000,E,0,00,,0.0,M,0.0,M,,0000*4A
$GPGSA,A,1,,,,,,,,,,,,,,,*1E
$GPGSV,3,1,12,21,79,000,33,15,70,000,38,07,48,000,,25,43,000,26*72
$GPGSV,3,2,12,06,37,000,30,16,33,000,,30,29,000,,18,25,000,25*7C
$GPGSV,3,3,12,03,10,000,20,22,09,000,,10,-1,000,,01,-3,000,*71
$GPRMC,172519.451,V,0000.0000,N,00000.0000,E,,0.00,300906,,,N*6D
$GPGGA,172520.447,0000.0000,N,00000.0000,E,0,00,,0.0,M,0.0,M,,0000*47
$GPGSA,A,1,,,,,,,,,,,,,,,*1E
$GPRMC,172520.447,V,0000.0000,N,00000.0000,E,,0.00,300906,,,N*60
$GPGGA,172521.451,0000.0000,N,00000.0000,E,0,00,,0.0,M,0.0,M,,0000*41
$GPGSA,A,1,,,,,,,,,,,,,,,*1E
$GPRMC,172521.451,V,0000.0000,N,00000.0000,E,,0.00,300906,,,N*66
$GPGGA,172522.452,0000.0000,N,00000.0000,E,0,00,,0.0,M,0.0,M,,0000*41
$GPGSA,A,1,,,,,,,,,,,,,,,*1E
$GPRMC,172522.452,V,0000.0000,N,00000.0000,E,,0.00,300906,,,N*66
$GPGGA,172523.448,0000.0000,N,00000.0000,E,0,00,,0.0,M,0.0,M,,0000*4B
$GPGSA,A,1,,,,,,,,,,,,,,,*1E
$GPRMC,172523.448,V,0000.0000,N,00000.0000,E,,0.00,300906,,,N*6C
$GPGGA,172524.452,0000.0000,N,00000.0000,E,0,00,,0.0,M,0.0,M,,0000*47
$GPGSA,A,1,,,,,,,,,,,,,,,*1E
$GPGSV,3,1,12,21,79,000,33,15,70,000,38,07,48,000,,25,43,000,34*71
$GPGSV,3,2,12,06,37,000,29,16,33,000,,30,29,000,,18,25,000,26*77
$GPGSV,3,3,12,03,10,000,19,22,09,000,,10,-1,000,,01,-3,000,*7B
$GPRMC,172524.452,V,0000.0000,N,00000.0000,E,,0.00,300906,,,N*60
$GPGGA,172525.452,0000.0000,N,00000.0000,E,0,00,,0.0,M,0.0,M,,0000*46
$GPGSA,A,1,,,,,,,,,,,,,,,*1E
$GPRMC,172525.452,V,0000.0000,N,00000.0000,E,,0.00,300906,,,N*61
$GPGGA,172526.448,0000.0000,N,00000.0000,E,0,00,,0.0,M,0.0,M,,0000*4E
$GPGSA,A,1,,,,,,,,,,,,,,,*1E
$GPRMC,172526.448,V,0000.0000,N,00000.0000,E,,0.00,300906,,,N*69
$GPGGA,172527.452,0000.0000,N,00000.0000,E,0,00,,0.0,M,0.0,M,,0000*44
$GPGSA,A,1,,,,,,,,,,,,,,,*1E
$GPRMC,172527.452,V,0000.0000,N,00000.0000,E,,0.00,300906,,,N*63
$GPGGA,172528.452,0000.0000,N,00000.0000,E,0,00,,0.0,M,0.0,M,,0000*4B
$GPGSA,A,1,,,,,,,,,,,,,,,*1E
$GPRMC,172528.452,V,0000.0000,N,00000.0000,E,,0.00,300906,,,N*6C
$GPGGA,172529.448,0000.0000,N,00000.0000,E,0,00,,0.0,M,0.0,M,,0000*41
$GPGSA,A,1,,,,,,,,,,,,,,,*1E
$GPGSV,3,1,12,21,79,000,34,15,70,000,38,07,48,000,,25,43,000,31*73
$GPGSV,3,2,12,06,37,000,35,16,33,000,,30,29,000,,18,25,000,27*7B
$GPGSV,3,3,12,03,10,000,27,22,09,000,,10,-1,000,,01,-3,000,*76
$GPRMC,172529.448,V,0000.0000,N,00000.0000,E,,0.00,300906,,,N*66
$GPGGA,172530.452,0000.0000,N,00000.0000,E,0,00,,0.0,M,0.0,M,,0000*42
$GPGSA,A,1,,,,,,,,,,,,,,,*1E
$GPRMC,172530.452,V,0000.0000,N,00000.0000,E,,0.00,300906,,,N*65
$GPGGA,172531.452,0000.0000,N,00000.0000,E,0,00,,0.0,M,0.0,M,,0000*43
$GPGSA,A,1,,,,,,,,,,,,,,,*1E
$GPRMC,172531.452,V,0000.0000,N,00000.0000,E,,0.00,300906,,,N*64
$GPGGA,172532.448,0000.0000,N,00000.0000,E,0,00,,0.0,M,0.0,M,,0000*4B
$GPGSA,A,1,,,,,,,,,,,,,,,*1E
$GPRMC,172532.448,V,0000.0000,N,00000.0000,E,,0.00,300906,,,N*6C
$GPGGA,172533.452,0000.0000,N,00000.0000,E,0,00,,0.0,M,0.0,M,,0000*41
$GPGSA,A,1,,,,,,,,,,,,,,,*1E
$GPRMC,172533.452,V,0000.0000,N,00000.0000,E,,0.00,300906,,,N*66
$GPGGA,172534.452,0000.0000,N,00000.0000,E,0,00,,0.0,M,0.0,M,,0000*46
$GPGSA,A,1,,,,,,,,,,,,,,,*1E
$GPGSV,3,1,12,21,79,000,33,15,70,000,38,07,48,000,40,25,43,000,36*77
$GPGSV,3,2,12,06,37,000,29,16,33,000,,30,29,000,,18,25,000,27*76
$GPGSV,3,3,12,03,10,000,28,22,09,000,,10,-1,000,,01,-3,000,*79
$GPRMC,172534.452,V,0000.0000,N,00000.0000,E,,0.00,300906,,,N*61
$GPGGA,172535.448,0000.0000,N,00000.0000,E,0,00,,0.0,M,0.0,M,,0000*4C
$GPGSA,A,1,,,,,,,,,,,,,,,*1E
$GPRMC,172535.448,V,0000.0000,N,00000.0000,E,,0.00,300906,,,N*6B
$GPGGA,172536.448,0000.0000,N,00000.0000,E,0,00,,0.0,M,0.0,M,,0000*4F
$GPGSA,A,1,,,,,,,,,,,,,,,*1E
$GPRMC,172536.448,V,0000.0000,N,00000.0000,E,,0.00,300906,,,N*68
$GPGGA,172537.448,0000.0000,N,00000.0000,E,0,00,,0.0,M,0.0,M,,0000*4E
$GPGSA,A,1,,,,,,,,,,,,,,,*1E
$GPRMC,172537.448,V,0000.0000,N,00000.0000,E,,0.00,300906,,,N*69
$GPGGA,172538.453,0000.0000,N,00000.0000,E,0,00,,0.0,M,0.0,M,,0000*4B
$GPGSA,A,1,,,,,,,,,,,,,,,*1E
$GPRMC,172538.453,V,0000.0000,N,00000.0000,E,,0.00,300906,,,N*6C
$GPGGA,172539.453,0000.0000,N,00000.0000,E,0,00,,0.0,M,0.0,M,,0000*4A
$GPGSA,A,1,,,,,,,,,,,,,,,*1E
$GPGSV,3,1,12,21,79,000,29,15,70,000,38,07,48,000,37,25,43,000,35*7F
$GPGSV,3,2,12,06,37,000,30,16,33,000,,30,29,000,,18,25,000,16*7C
$GPGSV,3,3,12,03,10,000,23,22,09,000,,10,-1,000,,01,-3,000,*72
$GPRMC,172539.453,V,0000.0000,N,00000.0000,E,,0.00,300906,,,N*6D
$GPGGA,172540.449,0000.0000,N,00000.0000,E,0,00,,0.0,M,0.0,M,,0000*4F
$GPGSA,A,1,,,,,,,,,,,,,,,*1E
$GPRMC,172540.449,V,0000.0000,N,00000.0000,E,,0.00,300906,,,N*68
$GPGGA,172541.453,0000.0000,N,00000.0000,E,0,00,,0.0,M,0.0,M,,0000*45
$GPGSA,A,1,,,,,,,,,,,,,,,*1E
$GPRMC,172541.453,V,0000.0000,N,00000.0000,E,,0.00,300906,,,N*62
$GPGGA,172542.449,0000.0000,N,00000.0000,E,0,00,,0.0,M,0.0,M,,0000*4D
$GPGSA,A,1,,,,,,,,,,,,,,,*1E
$GPRMC,172542.449,V,0000.0000,N,00000.0000,E,,0.00,300906,,,N*6A
$GPGGA,172543.453,0000.0000,N,00000.0000,E,0,00,,0.0,M,0.0,M,,0000*47
$GPGSA,A,1,,,,,,,,,,,,,,,*1E
$GPRMC,172543.453,V,0000.0000,N,00000.0000,E,,0.00,300906,,,N*60
$GPGGA,172544.453,0000.0000,N,00000.0000,E,0,00,,0.0,M,0.0,M,,0000*40
$GPGSA,A,1,,,,,,,,,,,,,,,*1E
$GPGSV,3,1,12,21,79,000,29,15,70,000,38,07,48,000,38,25,43,000,34*71
$GPGSV,3,2,12,06,37,000,31,16,33,000,40,30,29,000,,18,25,000,*7E
$GPGSV,3,3,12,03,10,000,23,22,09,000,,10,-1,000,,01,-3,000,*72
$GPRMC,172544.453,V,0000.0000,N,00000.0000,E,,0.00,300906,,,N*67
$GPGGA,172545.449,0000.0000,N,00000.0000,E,0,00,,0.0,M,0.0,M,,0000*4A
$GPGSA,A,1,,,,,,,,,,,,,,,*1E
$GPRMC,172545.449,V,0000.0000,N,00000.0000,E,,0.00,300906,,,N*6D
$GPGGA,172546.453,0000.0000,N,00000.0000,E,0,00,,0.0,M,0.0,M,,0000*42
$GPGSA,A,1,,,,,,,,,,,,,,,*1E
$GPRMC,172546.453,V,0000.0000,N,00000.0000,E,,0.00,300906,,,N*65
$GPGGA,172547.453,0000.0000,N,00000.0000,E,0,00,,0.0,M,0.0,M,,0000*43
$GPGSA,A,1,,,,,,,,,,,,,,,*1E
$GPRMC,172547.453,V,0000.0000,N,00000.0000,E,,0.00,300906,,,N*64
$GPGGA,172548.449,0000.0000,N,00000.0000,E,0,00,,0.0,M,0.0,M,,0000*47
$GPGSA,A,1,,,,,,,,,,,,,,,*1E
$GPRMC,172548.449,V,0000.0000,N,00000.0000,E,,0.00,300906,,,N*60
$GPGGA,172549.453,0000.0000,N,00000.0000,E,0,00,,0.0,M,0.0,M,,0000*4D
$GPGSA,A,1,,,,,,,,,,,,,,,*1E
$GPGSV,3,1,12,21,79,000,29,15,70,000,39,07,48,000,38,25,43,000,34*70
$GPGSV,3,2,12,06,37,000,31,16,33,000,39,30,29,000,,18,25,000,*70
$GPGSV,3,3,12,03,10,000,23,22,09,000,,10,-1,000,,01,-3,000,*72
$GPRMC,172549.453,V,0000.0000,N,00000.0000,E,,0.00,300906,,,N*6A
$GPGGA,172550.453,0000.0000,N,00000.0000,E,0,00,,0.0,M,0.0,M,,0000*45
$GPGSA,A,1,,,,,,,,,,,,,,,*1E
$GPRMC,172550.453,V,0000.0000,N,00000.0000,E,,0.00,300906,,,N*62
$GPGGA,172551.449,0000.0000,N,00000.0000,E,0,00,,0.0,M,0.0,M,,0000*4F
$GPGSA,A,1,,,,,,,,,,,,,,,*1E
$GPRMC,172551.449,V,0000.0000,N,00000.0000,E,,0.00,300906,,,N*68
$GPGGA,172552.449,0000.0000,N,00000.0000,E,0,00,,0.0,M,0.0,M,,0000*4C
$GPGSA,A,1,,,,,,,,,,,,,,,*1E
$GPRMC,172552.449,V,0000.0000,N,00000.0000,E,,0.00,300906,,,N*6B
$GPGGA,172553.448,4751.2969,N,00847.5556,E,1,03,6.8,0.0,M,0.0,M,,0000*65
$GPGSA,A,2,06,21,25,,,,,,,,,,6.8,6.8,1.0*30
$GPRMC,172553.448,A,4751.2969,N,00847.5556,E,0.76,0.00,300906,,,A*67
$GPGGA,172554.444,4751.2960,N,00847.5562,E,1,03,6.8,0.0,M,0.0,M,,0000*60
$GPGSA,A,2,06,21,25,,,,,,,,,,6.8,6.8,1.0*30
$GPGSV,3,1,11,21,69,152,29,06,46,076,31,25,30,230,34,07,59,279,38*73
$GPGSV,3,2,11,15,49,190,39,16,49,302,39,30,15,134,,10,13,036,*75
$GPGSV,3,3,11,03,13,270,23,18,11,143,,13,02,327,*45
$GPRMC,172554.444,A,4751.2960,N,00847.5562,E,1.64,150.94,300906,,,A*69
$GPGGA,172555.444,4751.2953,N,00847.5567,E,1,03,6.8,0.0,M,0.0,M,,0000*64
$GPGSA,A,2,06,21,25,,,,,,,,,,6.8,6.8,1.0*30
$GPRMC,172555.444,A,4751.2953,N,00847.5567,E,2.37,152.69,300906,,,A*68
$GPGGA,172556.448,4751.2947,N,00847.5572,E,1,03,6.8,0.0,M,0.0,M,,0000*6A
$GPGSA,A,2,06,21,25,,,,,,,,,,6.8,6.8,1.0*30
$GPRMC,172556.448,A,4751.2947,N,00847.5572,E,2.42,154.18,300906,,,A*64
$GPGGA,172557.444,4751.2941,N,00847.5577,E,1,03,6.8,0.0,M,0.0,M,,0000*64
$GPGSA,A,2,06,21,25,,,,,,,,,,6.9,6.8,1.0*31
$GPRMC,172557.444,A,4751.2941,N,00847.5577,E,2.24,152.52,300906,,,A*62
$GPGGA,172558.448,4751.2934,N,00847.5582,E,1,03,6.8,0.0,M,0.0,M,,0000*6F
$GPGSA,A,2,06,21,25,,,,,,,,,,6.9,6.8,1.0*31
$GPRMC,172558.448,A,4751.2934,N,00847.5582,E,2.39,153.28,300906,,,A*69
$GPGGA,172559.448,4751.2926,N,00847.5588,E,1,03,6.8,0.0,M,0.0,M,,0000*67
$GPGSA,A,2,06,21,25,,,,,,,,,,6.9,6.8,1.0*31
$GPGSV,3,1,11,21,69,152,29,06,46,076,31,25,30,230,34,07,59,279,38*73
$GPGSV,3,2,11,15,49,190,38,16,49,302,39,30,15,134,27,10,13,036,*71
$GPGSV,3,3,11,03,13,270,23,18,11,143,20,13,02,327,*47
$GPRMC,172559.448,A,4751.2926,N,00847.5588,E,2.37,149.97,300906,,,A*60
$GPGGA,172600.448,4751.2918,N,00847.5594,E,1,03,6.8,0.0,M,0.0,M,,0000*68
$GPGSA,A,2,06,21,25,,,,,,,,,,6.9,6.8,1.0*31
$GPRMC,172600.448,A,4751.2918,N,00847.5594,E,2.59,152.21,300906,,,A*60
$GPGGA,172601.444,4751.2912,N,00847.5600,E,1,03,6.8,0.0,M,0.0,M,,0000*61
$GPGSA,A,2,06,21,25,,,,,,,,,,6.9,6.8,1.0*31
$GPRMC,172601.444,A,4751.2912,N,00847.5600,E,2.49,152.34,300906,,,A*6C
$GPGGA,172602.444,4751.2905,N,00847.5605,E,1,03,6.8,0.0,M,0.0,M,,0000*61
$GPGSA,A,2,06,21,25,,,,,,,,,,6.9,6.8,1.0*31
$GPRMC,172602.444,A,4751.2905,N,00847.5605,E,2.50,151.16,300906,,,A*67
$GPGGA,172603.444,4751.2898,N,00847.5611,E,1,03,6.8,0.0,M,0.0,M,,0000*60
$GPGSA,A,2,06,21,25,,,,,,,,,,6.9,6.8,1.0*31
$GPRMC,172603.444,A,4751.2898,N,00847.5611,E,2.49,153.06,300906,,,A*6D
$GPGGA,172604.444,4751.2891,N,00847.5617,E,1,03,6.8,0.0,M,0.0,M,,0000*68
$GPGSA,A,2,06,21,25,,,,,,,,,,6.9,6.8,1.0*31
$GPGSV,3,1,11,21,69,152,29,06,46,076,31,25,30,230,34,07,59,279,38*73
$GPGSV,3,2,11,15,49,190,38,16,49,302,39,30,15,134,27,10,13,036,*71
$GPGSV,3,3,11,03,13,270,22,18,11,143,,13,02,327,*44
$GPRMC,172604.444,A,4751.2891,N,00847.5617,E,2.63,152.17,300906,,,A*6C
$GPGGA,172605.448,4751.7515,N,00847.1148,E,1,05,1.7,633.8,M,0.0,M,,0000*68
$GPGSA,A,3,06,21,25,07,16,,,,,,,,3.9,1.7,3.5*3A
$GPRMC,172605.448,A,4751.7515,N,00847.1148,E,1.83,152.17,300906,,,A*61
$GPGGA,172606.000,4751.7515,N,00847.1149,E,1,05,1.7,633.6,M,0.0,M,,0000*6C
$GPGSA,A,3,06,21,25,07,16,,,,,,,,3.9,1.7,3.5*3A
$GPRMC,172606.000,A,4751.7515,N,00847.1149,E,1.02,152.17,300906,,,A*62
$GPGGA,172607.000,4751.7514,N,00847.1149,E,1,05,1.7,633.6,M,0.0,M,,0000*6C
$GPGSA,A,3,06,21,25,07,16,,,,,,,,3.9,1.7,3.5*3A
$GPRMC,172607.000,A,4751.7514,N,00847.1149,E,0.00,152.17,300906,,,A*61
$GPGGA,172608.000,4751.7514,N,00847.1149,E,1,05,1.7,633.6,M,0.0,M,,0000*63
$GPGSA,A,3,06,21,25,07,16,,,,,,,,3.9,1.7,3.5*3A
$GPRMC,172608.000,A,4751.7514,N,00847.1149,E,0.00,152.17,300906,,,A*6E
$GPGGA,172609.000,4751.7514,N,00847.1150,E,1,05,1.7,633.5,M,0.0,M,,0000*69
$GPGSA,A,3,06,21,25,07,16,,,,,,,,3.9,1.7,3.5*3A
$GPGSV,3,1,11,21,69,152,29,07,59,279,38,16,49,302,39,06,46,076,30*71
$GPGSV,3,2,11,25,30,229,34,15,49,190,38,30,15,134,27,10,13,036,*7A
$GPGSV,3,3,11,03,13,270,22,18,11,143,16,13,02,327,07*44
$GPRMC,172609.000,A,4751.7514,N,00847.1150,E,0.00,152.17,300906,,,A*67
$GPGGA,172610.000,4751.7514,N,00847.1150,E,1,05,1.7,633.3,M,0.0,M,,0000*67
$GPGSA,A,3,06,21,25,07,16,,,,,,,,3.9,1.7,3.5*3A
$GPRMC,172610.000,A,4751.7514,N,00847.1150,E,0.00,152.17,300906,,,A*6F
$GPGGA,172611.000,4751.7514,N,00847.1150,E,1,05,1.7,633.2,M,0.0,M,,0000*67
$GPGSA,A,3,06,21,25,07,16,,,,,,,,3.9,1.7,3.5*3A
$GPRMC,172611.000,A,4751.7514,N,00847.1150,E,0.00,152.17,300906,,,A*6E
$GPGGA,172612.000,4751.7514,N,00847.1151,E,1,05,1.7,633.1,M,0.0,M,,0000*66
$GPGSA,A,3,06,21,25,07,16,,,,,,,,3.9,1.7,3.5*3A
$GPRMC,172612.000,A,4751.7514,N,00847.1151,E,0.00,152.17,300906,,,A*6C
$GPGGA,172613.000,4751.7513,N,00847.1151,E,1,05,1.7,632.9,M,0.0,M,,0000*69
$GPGSA,A,3,06,21,25,07,16,,,,,,,,3.9,1.7,3.5*3A
$GPRMC,172613.000,A,4751.7513,N,00847.1151,E,0.00,152.17,300906,,,A*6A
$GPGGA,172614.000,4751.7513,N,00847.1152,E,1,05,1.7,632.8,M,0.0,M,,0000*6C
$GPGSA,A,3,06,21,25,07,16,,,,,,,,3.9,1.7,3.5*3A
$GPGSV,3,1,11,21,69,152,29,07,59,279,38,16,49,302,39,06,46,076,29*79
$GPGSV,3,2,11,25,30,229,33,15,49,190,37,30,15,134,26,10,13,036,*73
$GPGSV,3,3,11,03,13,270,22,18,11,143,10,13,02,327,13*47
$GPRMC,172614.000,A,4751.7513,N,00847.1152,E,0.00,152.17,300906,,,A*6E
$GPGGA,172615.000,4751.7513,N,00847.1152,E,1,05,1.7,632.8,M,0.0,M,,0000*6D
$GPGSA,A,3,06,21,25,07,16,,,,,,,,3.9,1.7,3.5*3A
$GPRMC,172615.000,A,4751.7513,N,00847.1152,E,0.00,152.17,300906,,,A*6F
$GPGGA,172616.000,4751.7513,N,00847.1152,E,1,05,1.7,632.7,M,0.0,M,,0000*61
$GPGSA,A,3,06,21,25,07,16,,,,,,,,3.9,1.7,3.5*3A
$GPRMC,172616.000,A,4751.7513,N,00847.1152,E,0.00,152.17,300906,,,A*6C
$GPGGA,172617.000,4751.7513,N,00847.1153,E,1,05,1.7,632.6,M,0.0,M,,0000*60
$GPGSA,A,3,06,21,25,07,16,,,,,,,,3.9,1.7,3.5*3A
$GPRMC,172617.000,A,4751.7513,N,00847.1153,E,0.00,152.17,300906,,,A*6C
$GPGGA,172618.000,4751.7511,N,00847.1154,E,1,05,1.7,633.4,M,0.0,M,,0000*69
$GPGSA,A,3,06,21,25,07,16,,,,,,,,3.9,1.7,3.5*3A
$GPRMC,172618.000,A,4751.7511,N,00847.1154,E,0.00,152.17,300906,,,A*66
$GPGGA,172619.000,4751.7511,N,00847.1154,E,1,05,1.7,633.3,M,0.0,M,,0000*6F
$GPGSA,A,3,06,21,25,07,16,,,,,,,,3.9,1.7,3.5*3A
$GPGSV,3,1,11,21,69,152,28,07,59,279,38,15,49,190,37,16,49,302,39*73
$GPGSV,3,2,11,06,46,076,29,25,30,229,33,30,14,134,26,10,13,036,*79
$GPGSV,3,3,11,03,13,270,23,18,11,143,,13,02,327,15*41
$GPRMC,172619.000,A,4751.7511,N,00847.1154,E,0.00,152.17,300906,,,A*67
$GPGGA,172620.000,4751.7510,N,00847.1155,E,1,05,1.7,633.6,M,0.0,M,,0000*60
$GPGSA,A,3,06,21,25,07,16,,,,,,,,3.9,1.7,3.5*3A
$GPRMC,172620.000,A,4751.7510,N,00847.1155,E,0.00,152.17,300906,,,A*6D
$GPGGA,172621.000,4751.7508,N,00847.1155,E,1,05,1.7,634.3,M,0.0,M,,0000*6A
$GPGSA,A,3,06,21,25,07,16,,,,,,,,3.9,1.7,3.5*3A
$GPRMC,172621.000,A,4751.7508,N,00847.1155,E,0.00,152.17,300906,,,A*65
$GPGGA,172622.000,4751.7506,N,00847.1156,E,1,05,1.7,635.0,M,0.0,M,,0000*66
$GPGSA,A,3,06,21,25,07,16,,,,,,,,3.9,1.7,3.5*3A
$GPRMC,172622.000,A,4751.7506,N,00847.1156,E,0.00,152.17,300906,,,A*6B
$GPGGA,172623.000,4751.7503,N,00847.1157,E,1,05,1.7,636.6,M,0.0,M,,0000*66
$GPGSA,A,3,06,21,25,07,16,,,,,,,,3.9,1.7,3.5*3A
$GPRMC,172623.000,A,4751.7503,N,00847.1157,E,0.00,152.17,300906,,,A*6E
$GPGGA,172624.000,4751.7501,N,00847.1158,E,1,05,1.7,637.4,M,0.0,M,,0000*6F
$GPGSA,A,3,06,21,25,07,16,,,,,,,,3.9,1.7,3.5*3A
$GPGSV,3,1,11,21,69,152,27,07,59,279,38,15,49,190,37,16,49,302,39*7C
$GPGSV,3,2,11,06,46,076,29,25,30,229,33,30,14,134,26,10,13,036,*79
$GPGSV,3,3,11,03,13,270,23,18,11,143,14,13,02,327,15*44
$GPRMC,172624.000,A,4751.7501,N,00847.1158,E,0.00,152.17,300906,,,A*64
$GPGGA,172625.000,4751.7500,N,00847.1158,E,1,05,1.7,637.6,M,0.0,M,,0000*6D
$GPGSA,A,3,06,21,25,07,16,,,,,,,,3.9,1.7,3.5*3A
$GPRMC,172625.000,A,4751.7500,N,00847.1158,E,0.00,152.17,300906,,,A*64
$GPGGA,172626.000,4751.7498,N,00847.1159,E,1,05,1.7,638.5,M,0.0,M,,0000*63
$GPGSA,A,3,06,21,25,07,16,,,,,,,,3.9,1.7,3.5*3A
$GPRMC,172626.000,A,4751.7498,N,00847.1159,E,0.00,152.17,300906,,,A*66
$GPGGA,172627.000,4751.7496,N,00847.1160,E,1,05,1.7,639.6,M,0.0,M,,0000*64
$GPGSA,A,3,06,21,25,07,16,,,,,,,,3.9,1.7,3.5*3A
$GPRMC,172627.000,A,4751.7496,N,00847.1160,E,0.00,152.17,300906,,,A*63
$GPGGA,172628.000,4751.7495,N,00847.1160,E,1,05,1.7,639.6,M,0.0,M,,0000*68
$GPGSA,A,3,06,21,25,07,16,,,,,,,,3.9,1.7,3.5*3A
$GPRMC,172628.000,A,4751.7495,N,00847.1160,E,0.00,152.17,300906,,,A*6F
$GPGGA,172629.000,4751.7496,N,00847.1160,E,1,05,1.7,639.1,M,0.0,M,,0000*6D
$GPGSA,A,3,06,21,25,07,16,,,,,,,,3.9,1.7,3.5*3A
$GPGSV,3,1,11,21,69,152,26,07,59,279,38,15,49,190,37,16,49,302,38*7C
$GPGSV,3,2,11,06,46,076,29,25,30,229,33,30,14,134,26,10,13,036,*79
$GPGSV,3,3,11,03,13,270,23,18,11,143,10,13,02,327,16*43
$GPRMC,172629.000,A,4751.7496,N,00847.1160,E,0.00,152.17,300906,,,A*6D
$GPGGA,172630.000,4751.7497,N,00847.1160,E,1,05,1.7,638.5,M,0.0,M,,0000*61
$GPGSA,A,3,06,21,25,07,16,,,,,,,,3.9,1.7,3.5*3A
$GPRMC,172630.000,A,4751.7497,N,00847.1160,E,0.00,152.17,300906,,,A*64
$GPGGA,172631.000,4751.7498,N,00847.1159,E,1,05,1.7,638.2,M,0.0,M,,0000*62
$GPGSA,A,3,06,21,25,07,16,,,,,,,,3.9,1.7,3.5*3A
$GPRMC,172631.000,A,4751.7498,N,00847.1159,E,0.00,152.17,300906,,,A*60
$GPGGA,172632.000,4751.7498,N,00847.1159,E,1,05,1.7,637.9,M,0.0,M,,0000*65
$GPGSA,A,3,06,21,25,07,16,,,,,,,,3.9,1.7,3.5*3A
$GPRMC,172632.000,A,4751.7498,N,00847.1159,E,0.00,152.17,300906,,,A*63
$GPGGA,172633.000,4751.7496,N,00847.1160,E,1,05,1.7,638.9,M,0.0,M,,0000*6F
$GPGSA,A,3,06,21,25,07,16,,,,,,,,3.9,1.7,3.5*3A
$GPRMC,172633.000,A,4751.7496,N,00847.1160,E,0.00,152.17,300906,,,A*66
$GPGGA,172634.000,4751.7495,N,00847.1161,E,1,05,1.7,639.1,M,0.0,M,,0000*63
$GPGSA,A,3,06,21,25,07,16,,,,,,,,3.9,1.7,3.5*3A
$GPGSV,3,1,11,21,69,152,26,07,59,279,38,15,49,190,37,16,49,302,38*7C
$GPGSV,3,2,11,06,46,076,29,25,30,229,33,30,14,134,25,10,13,036,10*7B
$GPGSV,3,3,11,03,13,270,22,18,11,143,23,13,02,327,15*41
$GPRMC,172634.000,A,4751.7495,N,00847.1161,E,0.00,152.17,300906,,,A*63
$GPGGA,172635.000,4751.7494,N,00847.1161,E,1,05,1.7,639.4,M,0.0,M,,0000*66
$GPGSA,A,3,06,21,25,07,16,,,,,,,,3.9,1.7,3.5*3A
$GPRMC,172635.000,A,4751.7494,N,00847.1161,E,0.00,152.17,300906,,,A*63
$GPGGA,172636.000,4751.7493,N,00847.1161,E,1,05,1.7,639.6,M,0.0,M,,0000*60
$GPGSA,A,3,06,21,25,07,16,,,,,,,,3.9,1.7,3.5*3A
$GPRMC,172636.000,A,4751.7493,N,00847.1161,E,0.00,152.17,300906,,,A*67
$GPGGA,172637.000,4751.7493,N,00847.1161,E,1,05,1.7,639.7,M,0.0,M,,0000*60
$GPGSA,A,3,06,21,25,07,16,,,,,,,,3.9,1.7,3.5*3A
$GPRMC,172637.000,A,4751.7493,N,00847.1161,E,0.00,152.17,300906,,,A*66
$GPGGA,172638.000,4751.7493,N,00847.1160,E,1,05,1.7,639.7,M,0.0,M,,0000*6E
$GPGSA,A,3,06,21,25,07,16,,,,,,,,3.9,1.7,3.5*3A
$GPRMC,172638.000,A,4751.7493,N,00847.1160,E,0.00,152.17,300906,,,A*68
$GPGGA,172639.000,4751.7493,N,00847.1160,E,1,05,1.7,639.3,M,0.0,M,,0000*6B
$GPGSA,A,3,06,21,25,07,16,,,,,,,,3.9,1.7,3.5*3A
$GPGSV,3,1,11,21,69,152,25,07,59,279,38,15,49,190,37,16,49,302,38*7F
$GPGSV,3,2,11,06,46,076,30,25,30,229,33,30,14,134,26,10,13,036,*71
$GPGSV,3,3,11,03,13,270,21,18,11,143,22,13,02,327,15*43
$GPRMC,172639.000,A,4751.7493,N,00847.1160,E,0.00,152.17,300906,,,A*69
$GPGGA,172640.000,4751.7493,N,00847.1160,E,1,05,1.7,639.5,M,0.0,M,,0000*63
$GPGSA,A,3,06,21,25,07,16,,,,,,,,3.9,1.7,3.5*3A
$GPRMC,172640.000,A,4751.7493,N,00847.1160,E,0.00,152.17,300906,,,A*67
$GPGGA,172641.000,4751.7493,N,00847.1160,E,1,05,1.7,639.3,M,0.0,M,,0000*64
$GPGSA,A,3,06,21,25,07,16,,,,,,,,3.9,1.7,3.5*3A
$GPRMC,172641.000,A,4751.7493,N,00847.1160,E,0.00,152.17,300906,,,A*66
$GPGGA,172642.000,4751.7493,N,00847.1160,E,1,05,1.7,639.5,M,0.0,M,,0000*61
$GPGSA,A,3,06,21,25,07,16,,,,,,,,3.9,1.7,3.5*3A
$GPRMC,172642.000,A,4751.7493,N,00847.1160,E,0.00,152.17,300906,,,A*65
$GPGGA,172643.000,4751.7493,N,00847.1160,E,1,05,1.7,639.6,M,0.0,M,,0000*63
$GPGSA,A,3,06,21,25,07,16,,,,,,,,3.9,1.7,3.5*3A
$GPRMC,172643.000,A,4751.7493,N,00847.1160,E,0.00,152.17,300906,,,A*64
$GPGGA,172644.000,4751.7493,N,00847.1159,E,1,05,1.7,639.5,M,0.0,M,,0000*6D
$GPGSA,A,3,06,21,25,07,16,,,,,,,,3.9,1.7,3.5*3A
$GPGSV,3,1,11,21,69,152,25,07,59,279,38,15,49,190,37,16,49,302,38*7F
$GPGSV,3,2,11,06,46,076,30,25,30,229,33,30,14,134,27,10,13,036,*70
$GPGSV,3,3,11,03,13,270,21,18,11,143,22,13,02,327,14*42
$GPRMC,172644.000,A,4751.7493,N,00847.1159,E,0.00,152.17,300906,,,A*69
$GPGGA,172645.000,4751.7494,N,00847.1159,E,1,05,1.7,638.9,M,0.0,M,,0000*66
$GPGSA,A,3,06,21,25,07,16,,,,,,,,3.9,1.7,3.5*3A
$GPRMC,172645.000,A,4751.7494,N,00847.1159,E,0.00,152.17,300906,,,A*6F
$GPGGA,172646.000,4751.7494,N,00847.1159,E,1,05,1.7,639.0,M,0.0,M,,0000*6D
$GPGSA,A,3,06,21,25,07,16,,,,,,,,3.9,1.7,3.5*3A
$GPRMC,172646.000,A,4751.7494,N,00847.1159,E,0.00,152.17,300906,,,A*6C
$GPGGA,172647.000,4751.7494,N,00847.1158,E,1,05,1.7,638.9,M,0.0,M,,0000*65
$GPGSA,A,3,06,21,25,07,16,,,,,,,,3.9,1.7,3.5*3A
$GPRMC,172647.000,A,4751.7494,N,00847.1158,E,0.00,152.17,300906,,,A*6C
$GPGGA,172648.000,4751.7492,N,00847.1159,E,1,05,1.7,639.7,M,0.0,M,,0000*62
$GPGSA,A,3,06,21,25,07,16,,,,,,,,3.9,1.7,3.5*3A
$GPRMC,172648.000,A,4751.7492,N,00847.1159,E,0.00,152.17,300906,,,A*64
$GPGGA,172649.000,4751.7490,N,00847.1159,E,1,05,1.7,640.5,M,0.0,M,,0000*6D
$GPGSA,A,3,06,21,25,07,16,,,,,,,,3.9,1.7,3.5*3A
$GPGSV,3,1,11,21,69,151,25,07,59,279,38,15,49,190,37,16,49,302,38*7C
$GPGSV,3,2,11,06,46,077,30,25,30,229,33,30,14,134,26,03,13,270,21*71
$GPGSV,3,3,11,10,13,036,13,18,11,143,23,13,02,327,13*47
$GPRMC,172649.000,A,4751.7490,N,00847.1159,E,0.00,152.17,300906,,,A*67
$GPGGA,172650.000,4751.7489,N,00847.1159,E,1,05,1.7,640.7,M,0.0,M,,0000*6F
$GPGSA,A,3,06,21,25,07,16,,,,,,,,3.9,1.7,3.5*3A
$GPRMC,172650.000,A,4751.7489,N,00847.1159,E,0.00,152.17,300906,,,A*67
$GPGGA,172651.000,4751.7489,N,00847.1159,E,1,05,1.7,640.8,M,0.0,M,,0000*61
$GPGSA,A,3,06,21,25,07,16,,,,,,,,3.9,1.7,3.5*3A
$GPRMC,172651.000,A,4751.7489,N,00847.1159,E,0.00,152.17,300906,,,A*66
$GPGGA,172652.000,4751.7489,N,00847.1159,E,1,05,1.7,640.8,M,0.0,M,,0000*62
$GPGSA,A,3,06,21,25,07,16,,,,,,,,3.9,1.7,3.5*3A
$GPRMC,172652.000,A,4751.7489,N,00847.1159,E,0.00,152.17,300906,,,A*65
$GPGGA,172653.000,4751.7489,N,00847.1159,E,1,05,1.7,640.8,M,0.0,M,,0000*63
$GPGSA,A,3,06,21,25,07,16,,,,,,,,3.9,1.7,3.5*3A
$GPRMC,172653.000,A,4751.7489,N,00847.1159,E,0.00,152.17,300906,,,A*64
$GPGGA,172654.000,4751.7489,N,00847.1159,E,1,05,1.7,640.8,M,0.0,M,,0000*64
$GPGSA,A,3,06,21,25,07,16,,,,,,,,3.9,1.7,3.5*3A
$GPGSV,3,1,11,21,69,151,27,07,59,279,38,15,49,190,37,16,49,302,38*7E
$GPGSV,3,2,11,06,46,077,30,25,30,229,33,30,14,134,26,03,13,270,23*73
$GPGSV,3,3,11,10,13,036,13,18,11,143,23,13,02,327,12*46
$GPRMC,172654.000,A,4751.7489,N,00847.1159,E,0.00,152.17,300906,,,A*63
$GPGGA,172655.000,4751.7489,N,00847.1158,E,1,05,1.7,640.8,M,0.0,M,,0000*64
$GPGSA,A,3,06,21,25,07,16,,,,,,,,3.9,1.7,3.5*3A
$GPRMC,172655.000,A,4751.7489,N,00847.1158,E,0.00,152.17,300906,,,A*63
$GPGGA,172656.000,4751.7489,N,00847.1158,E,1,05,1.7,640.8,M,0.0,M,,0000*67
$GPGSA,A,3,06,21,25,07,16,,,,,,,,3.9,1.7,3.5*3A
$GPRMC,172656.000,A,4751.7489,N,00847.1158,E,0.00,152.17,300906,,,A*60
$GPGGA,172657.000,4751.7489,N,00847.1158,E,1,05,1.7,640.7,M,0.0,M,,0000*69
$GPGSA,A,3,06,21,25,07,16,,,,,,,,3.9,1.7,3.5*3A
$GPRMC,172657.000,A,4751.7489,N,00847.1158,E,0.00,152.17,300906,,,A*61
$GPGGA,172658.000,4751.7489,N,00847.1158,E,1,05,1.7,640.5,M,0.0,M,,0000*64
$GPGSA,A,3,06,21,25,07,16,,,,,,,,3.9,1.7,3.5*3A
$GPRMC,172658.000,A,4751.7489,N,00847.1158,E,0.00,152.17,300906,,,A*6E
$GPGGA,172659.000,4751.7490,N,00847.1158,E,1,05,1.7,640.3,M,0.0,M,,0000*6B
$GPGSA,A,3,06,21,25,07,16,,,,,,,,3.9,1.7,3.5*3A
$GPGSV,3,1,11,21,69,151,27,07,59,279,38,15,49,190,37,16,49,302,38*7E
$GPGSV,3,2,11,06,46,077,30,25,30,229,33,30,14,134,26,03,13,270,23*73
$GPGSV,3,3,11,10,13,036,14,18,11,143,22,13,02,327,12*40
$GPRMC,172659.000,A,4751.7490,N,00847.1158,E,0.00,152.17,300906,,,A*67
$GPGGA,172700.000,4751.7490,N,00847.1158,E,1,05,1.7,640.1,M,0.0,M,,0000*64
$GPGSA,A,3,06,21,25,07,16,,,,,,,,3.9,1.7,3.5*3A
$GPRMC,172700.000,A,4751.7490,N,00847.1158,E,0.00,152.17,300906,,,A*6A
$GPGGA,172701.000,4751.7490,N,00847.1157,E,1,05,1.7,639.8,M,0.0,M,,0000*6D
$GPGSA,A,3,06,21,25,07,16,,,,,,,,3.9,1.7,3.5*3A
$GPRMC,172701.000,A,4751.7490,N,00847.1157,E,0.00,152.17,300906,,,A*64
$GPGGA,172702.000,4751.7491,N,00847.1157,E,1,05,1.7,639.7,M,0.0,M,,0000*60
$GPGSA,A,3,06,21,25,07,16,,,,,,,,3.9,1.7,3.5*3A
$GPRMC,172702.000,A,4751.7491,N,00847.1157,E,0.00,152.17,300906,,,A*66
$GPGGA,172703.000,4751.7491,N,00847.1157,E,1,05,1.7,639.5,M,0.0,M,,0000*63
$GPGSA,A,3,06,21,25,07,16,,,,,,,,3.9,1.7,3.5*3A
$GPRMC,172703.000,A,4751.7491,N,00847.1157,E,0.00,152.17,300906,,,A*67
$GPGGA,172704.000,4751.7491,N,00847.1157,E,1,05,1.7,639.3,M,0.0,M,,0000*62
$GPGSA,A,3,06,21,25,07,16,,,,,,,,3.9,1.7,3.5*3A
$GPGSV,3,1,11,21,69,151,27,07,59,279,38,15,49,190,37,16,49,302,39*7F
$GPGSV,3,2,11,06,46,077,29,25,30,229,33,30,14,134,26,03,13,270,24*7C
$GPGSV,3,3,11,10,13,036,13,18,11,143,22,13,02,327,13*46
$GPRMC,172704.000,A,4751.7491,N,00847.1157,E,0.00,152.17,300906,,,A*60
$GPGGA,172705.000,4751.7491,N,00847.1157,E,1,05,1.7,639.2,M,0.0,M,,0000*62
$GPGSA,A,3,06,21,25,07,16,,,,,,,,3.9,1.7,3.5*3A
$GPRMC,172705.000,A,4751.7491,N,00847.1157,E,0.00,152.17,300906,,,A*61
$GPGGA,172706.000,4751.7491,N,00847.1157,E,1,05,1.7,639.1,M,0.0,M,,0000*62
$GPGSA,A,3,06,21,25,07,16,,,,,,,,3.9,1.7,3.5*3A
$GPRMC,172706.000,A,4751.7491,N,00847.1157,E,0.00,152.17,300906,,,A*62
$GPGGA,172707.000,4751.7492,N,00847.1157,E,1,05,1.7,638.9,M,0.0,M,,0000*69
$GPGSA,A,3,06,21,25,07,16,,,,,,,,3.9,1.7,3.5*3A
$GPRMC,172707.000,A,4751.7492,N,00847.1157,E,0.00,152.17,300906,,,A*60
$GPGGA,172708.000,4751.7492,N,00847.1157,E,1,05,1.7,638.8,M,0.0,M,,0000*67
$GPGSA,A,3,06,21,25,07,16,,,,,,,,3.9,1.7,3.5*3A
$GPRMC,172708.000,A,4751.7492,N,00847.1157,E,0.00,152.17,300906,,,A*6F
$GPGGA,172709.000,4751.7492,N,00847.1157,E,1,05,1.7,638.6,M,0.0,M,,0000*68
$GPGSA,A,3,06,21,25,07,16,,,,,,,,3.9,1.7,3.5*3A
$GPGSV,3,1,11,21,69,151,27,07,59,279,38,15,49,190,37,16,49,302,38*7E
$GPGSV,3,2,11,06,46,077,30,25,30,229,33,30,14,134,26,03,13,270,23*73
$GPGSV,3,3,11,10,13,036,14,18,11,143,22,13,02,327,13*41
$GPRMC,172709.000,A,4751.7492,N,00847.1157,E,0.00,152.17,300906,,,A*6E
$GPGGA,172710.000,4751.7492,N,00847.1156,E,1,05,1.7,638.4,M,0.0,M,,0000*63
$GPGSA,A,3,06,21,25,07,16,,,,,,,,3.9,1.7,3.5*3A
$GPRMC,172710.000,A,4751.7492,N,00847.1156,E,0.00,152.17,300906,,,A*67
$GPGGA,172711.000,4751.7493,N,00847.1156,E,1,05,1.7,638.3,M,0.0,M,,0000*64
$GPGSA,A,3,06,21,25,07,16,,,,,,,,3.9,1.7,3.5*3A
$GPRMC,172711.000,A,4751.7493,N,00847.1156,E,0.00,152.17,300906,,,A*67
$GPGGA,172712.000,4751.7493,N,00847.1156,E,1,05,1.7,638.2,M,0.0,M,,0000*66
$GPGSA,A,3,06,21,25,07,16,,,,,,,,3.9,1.7,3.5*3A
$GPRMC,172712.000,A,4751.7493,N,00847.1156,E,0.00,152.17,300906,,,A*64
$GPGGA,172713.000,4751.7493,N,00847.1156,E,1,05,1.7,638.1,M,0.0,M,,0000*64
$GPGSA,A,3,06,21,25,07,16,,,,,,,,3.9,1.7,3.5*3A
$GPRMC,172713.000,A,4751.7493,N,00847.1156,E,0.00,152.17,300906,,,A*65
$GPGGA,172714.000,4751.7493,N,00847.1156,E,1,05,1.7,638.1,M,0.0,M,,0000*63
$GPGSA,A,3,06,21,25,07,16,,,,,,,,3.9,1.7,3.4*3B
$GPGSV,3,1,11,21,69,151,27,07,59,279,37,15,49,190,37,16,49,302,38*71
$GPGSV,3,2,11,06,46,077,29,25,30,229,32,30,14,134,26,03,13,270,23*7A
$GPGSV,3,3,11,10,13,036,14,18,11,143,22,13,02,327,12*40
$GPRMC,172714.000,A,4751.7493,N,00847.1156,E,0.00,152.17,300906,,,A*62
$GPGGA,172715.000,4751.7493,N,00847.1156,E,1,05,1.7,638.0,M,0.0,M,,0000*63
$GPGSA,A,3,06,21,25,07,16,,,,,,,,3.9,1.7,3.4*3B
$GPRMC,172715.000,A,4751.7493,N,00847.1156,E,0.00,152.17,300906,,,A*63
$GPGGA,172716.000,4751.7493,N,00847.1156,E,1,05,1.7,637.9,M,0.0,M,,0000*66
$GPGSA,A,3,06,21,25,07,16,,,,,,,,3.9,1.7,3.4*3B
$GPRMC,172716.000,A,4751.7493,N,00847.1156,E,0.00,152.17,300906,,,A*60
$GPGGA,172717.000,4751.7493,N,00847.1156,E,1,05,1.7,637.9,M,0.0,M,,0000*67
$GPGSA,A,3,06,21,25,07,16,,,,,,,,3.9,1.7,3.4*3B
$GPRMC,172717.000,A,4751.7493,N,00847.1156,E,0.00,152.17,300906,,,A*61
$GPGGA,172718.000,4751.7493,N,00847.1156,E,1,05,1.7,637.9,M,0.0,M,,0000*68
$GPGSA,A,3,06,21,25,07,16,,,,,,,,3.9,1.7,3.4*3B
$GPRMC,172718.000,A,4751.7493,N,00847.1156,E,0.00,152.17,300906,,,A*6E
$GPGGA,172719.000,4751.7493,N,00847.1156,E,1,05,1.7,637.9,M,0.0,M,,0000*69
$GPGSA,A,3,06,21,25,07,16,,,,,,,,3.8,1.7,3.4*3A
$GPGSV,3,1,11,21,69,151,26,07,59,279,37,15,49,190,37,16,49,302,38*70
$GPGSV,3,2,11,06,46,077,29,25,30,229,32,30,14,134,26,03,13,270,23*7A
$GPGSV,3,3,11,10,13,036,14,18,11,143,22,13,02,327,*43
$GPRMC,172719.000,A,4751.7493,N,00847.1156,E,0.00,152.17,300906,,,A*6F
$GPGGA,172720.000,4751.7492,N,00847.1156,E,1,05,1.7,637.9,M,0.0,M,,0000*62
$GPGSA,A,3,06,21,25,07,16,,,,,,,,3.8,1.7,3.4*3A
$GPRMC,172720.000,A,4751.7492,N,00847.1156,E,0.00,152.17,300906,,,A*64
$GPGGA,172721.000,4751.7492,N,00847.1156,E,1,05,1.7,637.9,M,0.0,M,,0000*63
$GPGSA,A,3,06,21,25,07,16,,,,,,,,3.8,1.7,3.4*3A
$GPRMC,172721.000,A,4751.7492,N,00847.1156,E,0.00,152.17,300906,,,A*65
$GPGGA,172722.000,4751.7492,N,00847.1156,E,1,05,1.7,637.9,M,0.0,M,,0000*60
$GPGSA,A,3,06,21,25,07,16,,,,,,,,3.8,1.7,3.4*3A
$GPRMC,172722.000,A,4751.7492,N,00847.1156,E,0.00,152.17,300906,,,A*66
$GPGGA,172723.000,4751.7492,N,00847.1156,E,1,05,1.7,637.9,M,0.0,M,,0000*61
$GPGSA,A,3,06,21,25,07,16,,,,,,,,3.8,1.7,3.4*3A
$GPRMC,172723.000,A,4751.7492,N,00847.1156,E,0.00,152.17,300906,,,A*67
$GPGGA,172724.000,4751.7492,N,00847.1156,E,1,05,1.7,638.0,M,0.0,M,,0000*60
$GPGSA,A,3,06,21,25,07,16,,,,,,,,3.8,1.7,3.4*3A
$GPGSV,3,1,11,21,69,151,26,07,59,279,37,15,49,190,37,16,49,302,38*70
$GPGSV,3,2,11,06,46,077,29,25,30,229,32,30,14,134,26,03,13,270,24*7D
$GPGSV,3,3,11,10,13,036,15,18,11,143,23,13,02,327,*43
$GPRMC,172724.000,A,4751.7492,N,00847.1156,E,0.00,152.17,300906,,,A*60
$GPGGA,172725.000,4751.7492,N,00847.1156,E,1,05,1.7,638.1,M,0.0,M,,0000*60
$GPGSA,A,3,06,21,25,07,16,,,,,,,,3.8,1.7,3.4*3A
$GPRMC,172725.000,A,4751.7492,N,00847.1156,E,0.00,152.17,300906,,,A*61
$GPGGA,172726.000,4751.7491,N,00847.1156,E,1,05,1.7,638.1,M,0.0,M,,0000*60
$GPGSA,A,3,06,21,25,07,16,,,,,,,,3.8,1.7,3.4*3A
$GPRMC,172726.000,A,4751.7491,N,00847.1156,E,0.00,152.17,300906,,,A*61
$GPGGA,172727.000,4751.7491,N,00847.1156,E,1,05,1.7,638.2,M,0.0,M,,0000*62
$GPGSA,A,3,06,21,25,07,16,,,,,,,,3.8,1.7,3.4*3A
$GPRMC,172727.000,A,4751.7491,N,00847.1156,E,0.00,152.17,300906,,,A*60
$GPGGA,172728.000,4751.7491,N,00847.1156,E,1,05,1.7,638.2,M,0.0,M,,0000*6D
$GPGSA,A,3,06,21,25,07,16,,,,,,,,3.8,1.7,3.4*3A
$GPRMC,172728.000,A,4751.7491,N,00847.1156,E,0.00,152.17,300906,,,A*6F
$GPGGA,172729.000,4751.7491,N,00847.1155,E,1,05,1.7,638.2,M,0.0,M,,0000*6F
$GPGSA,A,3,06,21,25,07,16,,,,,,,,3.8,1.7,3.4*3A
$GPGSV,3,1,11,21,69,151,26,07,59,279,37,15,49,190,37,16,49,302,38*70
$GPGSV,3,2,11,06,46,077,29,25,30,229,32,30,14,134,27,03,13,270,23*7B
$GPGSV,3,3,11,10,13,036,16,18,11,143,24,13,02,327,12*44
$GPRMC,172729.000,A,4751.7491,N,00847.1155,E,0.00,152.17,300906,,,A*6D
$GPGGA,172730.000,4751.7491,N,00847.1155,E,1,05,1.7,638.2,M,0.0,M,,0000*67
$GPGSA,A,3,06,21,25,07,16,,,,,,,,3.8,1.7,3.4*3A
$GPRMC,172730.000,A,4751.7491,N,00847.1155,E,0.00,152.17,300906,,,A*65
$GPGGA,172731.000,4751.7491,N,00847.1155,E,1,05,1.7,638.1,M,0.0,M,,0000*65
$GPGSA,A,3,06,21,25,07,16,,,,,,,,3.8,1.7,3.4*3A
$GPRMC,172731.000,A,4751.7491,N,00847.1155,E,0.00,152.17,300906,,,A*64
$GPGGA,172732.000,4751.7491,N,00847.1154,E,1,05,1.7,638.1,M,0.0,M,,0000*67
$GPGSA,A,3,06,21,25,07,16,,,,,,,,3.8,1.7,3.4*3A
$GPRMC,172732.000,A,4751.7491,N,00847.1154,E,0.00,152.17,300906,,,A*66
$GPGGA,172733.000,4751.7491,N,00847.1154,E,1,05,1.7,638.0,M,0.0,M,,0000*67
$GPGSA,A,3,06,21,25,07,16,,,,,,,,3.8,1.7,3.4*3A
$GPRMC,172733.000,A,4751.7491,N,00847.1154,E,0.00,152.17,300906,,,A*67
$GPGGA,172734.000,4751.7491,N,00847.1154,E,1,05,1.7,638.0,M,0.0,M,,0000*60
$GPGSA,A,3,06,21,25,07,16,,,,,,,,3.8,1.7,3.4*3A
$GPGSV,3,1,11,21,69,151,27,07,59,279,37,15,49,190,37,16,49,302,38*71
$GPGSV,3,2,11,06,46,077,29,25,30,229,32,30,14,134,27,03,13,270,22*7A
$GPGSV,3,3,11,10,13,036,16,18,11,143,24,13,02,327,07*40
$GPRMC,172734.000,A,4751.7491,N,00847.1154,E,0.00,152.17,300906,,,A*60
$GPGGA,172735.000,4751.7491,N,00847.1153,E,1,05,1.7,638.0,M,0.0,M,,0000*66
$GPGSA,A,3,06,21,25,07,16,,,,,,,,3.8,1.7,3.4*3A
$GPRMC,172735.000,A,4751.7491,N,00847.1153,E,0.00,152.17,300906,,,A*66
$GPGGA,172736.000,4751.7491,N,00847.1153,E,1,05,1.7,637.9,M,0.0,M,,0000*63
$GPGSA,A,3,06,21,25,07,16,,,,,,,,3.8,1.7,3.4*3A
$GPRMC,172736.000,A,4751.7491,N,00847.1153,E,0.00,152.17,300906,,,A*65
$GPGGA,172737.000,4751.7491,N,00847.1153,E,1,05,1.7,638.0,M,0.0,M,,0000*64
$GPGSA,A,3,06,21,25,07,16,,,,,,,,3.8,1.7,3.4*3A
$GPRMC,172737.000,A,4751.7491,N,00847.1153,E,0.00,152.17,300906,,,A*64
$GPGGA,172738.000,4751.7490,N,00847.1153,E,1,05,1.7,638.0,M,0.0,M,,0000*6A
$GPGSA,A,3,06,21,25,07,16,,,,,,,,3.8,1.7,3.4*3A
$GPRMC,172738.000,A,4751.7490,N,00847.1153,E,0.00,152.17,300906,,,A*6A
$GPGGA,172739.000,4751.7490,N,00847.1153,E,1,05,1.7,638.1,M,0.0,M,,0000*6A
$GPGSA,A,3,06,21,25,07,16,,,,,,,,3.8,1.7,3.4*3A
$GPGSV,3,1,11,21,69,151,27,07,59,279,37,15,49,190,38,16,49,302,38*7E
$GPGSV,3,2,11,06,46,077,30,25,30,229,32,30,14,134,26,03,13,270,23*72
$GPGSV,3,3,11,10,13,036,15,18,11,143,24,13,02,327,*44
$GPRMC,172739.000,A,4751.7490,N,00847.1153,E,0.00,152.17,300906,,,A*6B
$GPGGA,172740.000,4751.7490,N,00847.1152,E,1,05,1.7,638.1,M,0.0,M,,0000*65
$GPGSA,A,3,06,21,25,07,16,,,,,,,,3.8,1.7,3.4*3A
$GPRMC,172740.000,A,4751.7490,N,00847.1152,E,0.00,152.17,300906,,,A*64
$GPGGA,172741.000,4751.7490,N,00847.1152,E,1,05,1.7,638.1,M,0.0,M,,0000*64
$GPGSA,A,3,06,21,25,07,16,,,,,,,,3.8,1.7,3.4*3A
$GPRMC,172741.000,A,4751.7490,N,00847.1152,E,0.00,152.17,300906,,,A*65
$GPGGA,172742.000,4751.7490,N,00847.1152,E,1,05,1.7,638.1,M,0.0,M,,0000*67
$GPGSA,A,3,06,21,25,07,16,,,,,,,,3.8,1.7,3.4*3A
$GPRMC,172742.000,A,4751.7490,N,00847.1152,E,0.00,152.17,300906,,,A*66
$GPGGA,172743.000,4751.7489,N,00847.1152,E,1,05,1.7,638.2,M,0.0,M,,0000*6D
$GPGSA,A,3,06,21,25,07,16,,,,,,,,3.8,1.7,3.4*3A
$GPRMC,172743.000,A,4751.7489,N,00847.1152,E,0.00,152.17,300906,,,A*6F
$GPGGA,172744.000,4751.7489,N,00847.1152,E,1,05,1.7,638.2,M,0.0,M,,0000*6A
$GPGSA,A,3,06,21,25,07,16,,,,,,,,3.8,1.7,3.4*3A
$GPGSV,3,1,11,21,69,151,27,07,59,279,37,15,49,190,38,16,49,302,38*7E
$GPGSV,3,2,11,06,46,077,30,25,30,229,32,30,14,134,25,03,13,270,24*76
$GPGSV,3,3,11,10,13,036,16,18,11,143,23,13,02,327,*40
$GPRMC,172744.000,A,4751.7489,N,00847.1152,E,0.00,152.17,300906,,,A*68
$GPGGA,172745.000,4751.7489,N,00847.1152,E,1,05,1.7,638.2,M,0.0,M,,0000*6B
$GPGSA,A,3,06,21,25,07,16,,,,,,,,3.8,1.7,3.4*3A
$GPRMC,172745.000,A,4751.7489,N,00847.1152,E,0.00,152.17,300906,,,A*69
$GPGGA,172746.000,4751.7489,N,00847.1151,E,1,05,1.7,638.2,M,0.0,M,,0000*6B
$GPGSA,A,3,06,21,25,07,16,,,,,,,,3.8,1.7,3.4*3A
$GPRMC,172746.000,A,4751.7489,N,00847.1151,E,0.00,152.17,300906,,,A*69
$GPGGA,172747.000,4751.7489,N,00847.1151,E,1,05,1.7,638.2,M,0.0,M,,0000*6A
$GPGSA,A,3,06,21,25,07,16,,,,,,,,3.8,1.7,3.4*3A
$GPRMC,172747.000,A,4751.7489,N,00847.1151,E,0.00,152.17,300906,,,A*68
$GPGGA,172748.000,4751.7489,N,00847.1151,E,1,05,1.7,638.2,M,0.0,M,,0000*65
$GPGSA,A,3,06,21,25,07,16,,,,,,,,3.8,1.7,3.4*3A
$GPRMC,172748.000,A,4751.7489,N,00847.1151,E,0.00,152.17,300906,,,A*67
$GPGGA,172749.000,4751.7489,N,00847.1151,E,1,05,1.7,638.2,M,0.0,M,,0000*64
$GPGSA,A,3,06,21,25,07,16,,,,,,,,3.8,1.7,3.4*3A
$GPGSV,3,1,10,21,69,150,27,07,60,280,37,16,49,302,38,06,45,077,30*7C
$GPGSV,3,2,10,25,30,229,32,30,14,135,24,03,13,270,25,10,13,036,17*71
$GPGSV,3,3,10,18,11,143,,13,02,326,07*77
$GPRMC,172749.000,A,4751.7489,N,00847.1151,E,0.00,152.17,300906,,,A*66
$GPGGA,172750.000,4751.7489,N,00847.1151,E,1,05,1.7,638.2,M,0.0,M,,0000*6C
$GPGSA,A,3,06,21,25,07,16,,,,,,,,3.8,1.7,3.4*3A
$GPRMC,172750.000,A,4751.7489,N,00847.1151,E,0.00,152.17,300906,,,A*6E
$GPGGA,172751.000,4751.7488,N,00847.1151,E,1,05,1.7,638.2,M,0.0,M,,0000*6C
$GPGSA,A,3,06,21,25,07,16,,,,,,,,3.8,1.7,3.4*3A
$GPRMC,172751.000,A,4751.7488,N,00847.1151,E,0.00,152.17,300906,,,A*6E
$GPGGA,172752.000,4751.7488,N,00847.1151,E,1,05,1.7,638.2,M,0.0,M,,0000*6F
$GPGSA,A,3,06,21,25,07,16,,,,,,,,3.8,1.7,3.4*3A
$GPRMC,172752.000,A,4751.7488,N,00847.1151,E,0.00,152.17,300906,,,A*6D
$GPGGA,172753.000,4751.7488,N,00847.1151,E,1,05,1.7,638.2,M,0.0,M,,0000*6E
$GPGSA,A,3,06,21,25,07,16,,,,,,,,3.8,1.7,3.4*3A
$GPRMC,172753.000,A,4751.7488,N,00847.1151,E,0.00,152.17,300906,,,A*6C
$GPGGA,172754.000,4751.7488,N,00847.1151,E,1,05,1.7,638.2,M,0.0,M,,0000*69
$GPGSA,A,3,06,21,25,07,16,,,,,,,,3.8,1.7,3.4*3A
$GPGSV,3,1,10,21,69,150,28,07,60,280,38,16,49,302,38,06,45,077,31*7D
$GPGSV,3,2,10,25,30,229,32,30,14,135,24,03,13,270,25,10,13,036,20*75
$GPGSV,3,3,10,18,11,143,,13,02,326,*70
$GPRMC,172754.000,A,4751.7488,N,00847.1151,E,0.00,152.17,300906,,,A*6B
$GPGGA,172755.000,4751.7488,N,00847.1151,E,1,05,1.7,638.2,M,0.0,M,,0000*68
$GPGSA,A,3,06,21,25,07,16,,,,,,,,3.8,1.7,3.4*3A
$GPRMC,172755.000,A,4751.7488,N,00847.1151,E,0.00,152.17,300906,,,A*6A
$GPGGA,172756.000,4751.7488,N,00847.1151,E,1,05,1.7,638.3,M,0.0,M,,0000*6A
$GPGSA,A,3,06,21,25,07,16,,,,,,,,3.8,1.7,3.4*3A
$GPRMC,172756.000,A,4751.7488,N,00847.1151,E,0.00,152.17,300906,,,A*69
$GPGGA,172757.000,4751.7488,N,00847.1151,E,1,05,1.7,638.3,M,0.0,M,,0000*6B
$GPGSA,A,3,06,21,25,07,16,,,,,,,,3.8,1.7,3.4*3A
$GPRMC,172757.000,A,4751.7488,N,00847.1151,E,0.00,152.17,300906,,,A*68
$GPGGA,172758.000,4751.7488,N,00847.1150,E,1,05,1.7,638.3,M,0.0,M,,0000*65
$GPGSA,A,3,06,21,25,07,16,,,,,,,,3.8,1.7,3.4*3A
$GPRMC,172758.000,A,4751.7488,N,00847.1150,E,0.00,152.17,300906,,,A*66
$GPGGA,172759.000,4751.7488,N,00847.1150,E,1,05,1.7,638.3,M,0.0,M,,0000*64
$GPGSA,A,3,06,21,25,07,16,,,,,,,,3.8,1.7,3.4*3A
$GPGSV,3,1,11,21,69,150,28,07,60,280,38,16,49,302,38,06,45,077,31*7C
$GPGSV,3,2,11,25,30,229,32,30,14,135,24,03,13,270,25,10,13,036,18*7F
$GPGSV,3,3,11,18,11,143,16,13,02,326,,33,30,211,30*44
$GPRMC,172759.000,A,4751.7488,N,00847.1150,E,0.00,152.17,300906,,,A*67
$GPGGA,172800.000,4751.7488,N,00847.1150,E,1,05,1.7,638.3,M,0.0,M,,0000*67
$GPGSA,A,3,06,21,25,07,16,,,,,,,,3.8,1.7,3.4*3A
$GPRMC,172800.000,A,4751.7488,N,00847.1150,E,0.00,152.17,300906,,,A*64
$GPGGA,172801.000,4751.7487,N,00847.1150,E,1,05,1.7,638.3,M,0.0,M,,0000*69
$GPGSA,A,3,06,21,25,07,16,,,,,,,,3.8,1.7,3.4*3A
$GPRMC,172801.000,A,4751.7487,N,00847.1150,E,0.00,152.17,300906,,,A*6A
$GPGGA,172802.000,4751.7487,N,00847.1151,E,1,05,1.7,638.3,M,0.0,M,,0000*6B
$GPGSA,A,3,06,21,25,07,16,,,,,,,,3.8,1.7,3.4*3A
$GPRMC,172802.000,A,4751.7487,N,00847.1151,E,0.00,152.17,300906,,,A*68
$GPGGA,172803.000,4751.7487,N,00847.1151,E,1,05,1.7,638.3,M,0.0,M,,0000*6A
$GPGSA,A,3,06,21,25,07,16,,,,,,,,3.8,1.7,3.4*3A
$GPRMC,172803.000,A,4751.7487,N,00847.1151,E,0.00,152.17,300906,,,A*69
$GPGGA,172804.000,4751.7487,N,00847.1151,E,1,05,1.7,638.3,M,0.0,M,,0000*6D
$GPGSA,A,3,06,21,25,07,16,,,,,,,,3.8,1.7,3.4*3A
$GPGSV,3,1,11,21,69,150,28,07,60,280,38,16,49,302,38,06,45,077,30*7D
$GPGSV,3,2,11,25,30,229,32,30,14,135,25,03,13,270,25,10,13,036,17*71
$GPGSV,3,3,11,18,11,143,18,13,02,326,,33,30,211,29*42
$GPRMC,172804.000,A,4751.7487,N,00847.1151,E,0.00,152.17,300906,,,A*6E
$GPGGA,172805.000,4751.7487,N,00847.1151,E,1,05,1.7,638.3,M,0.0,M,,0000*6C
$GPGSA,A,3,06,21,25,07,16,,,,,,,,3.8,1.7,3.4*3A
$GPRMC,172805.000,A,4751.7487,N,00847.1151,E,0.00,152.17,300906,,,A*6F
$GPGGA,172806.000,4751.7487,N,00847.1151,E,1,05,1.7,638.2,M,0.0,M,,0000*6E
$GPGSA,A,3,06,21,25,07,16,,,,,,,,3.8,1.7,3.4*3A
$GPRMC,172806.000,A,4751.7487,N,00847.1151,E,0.00,152.17,300906,,,A*6C
$GPGGA,172807.000,4751.7488,N,00847.1151,E,1,05,1.7,638.2,M,0.0,M,,0000*60
$GPGSA,A,3,06,21,25,07,16,,,,,,,,3.8,1.7,3.4*3A
$GPRMC,172807.000,A,4751.7488,N,00847.1151,E,0.00,152.17,300906,,,A*62
$GPGGA,172808.000,4751.7488,N,00847.1151,E,1,05,1.7,638.2,M,0.0,M,,0000*6F
$GPGSA,A,3,06,21,25,07,16,,,,,,,,3.8,1.7,3.4*3A
$GPRMC,172808.000,A,4751.7488,N,00847.1151,E,0.00,152.17,300906,,,A*6D
$GPGGA,172809.000,4751.7488,N,00847.1151,E,1,05,1.7,638.2,M,0.0,M,,0000*6E
$GPGSA,A,3,06,21,25,07,16,,,,,,,,3.8,1.7,3.4*3A
$GPGSV,3,1,11,21,69,150,29,07,60,280,38,16,49,302,38,06,45,077,29*74
$GPGSV,3,2,11,25,30,229,33,30,14,135,25,03,13,270,25,10,13,036,15*72
$GPGSV,3,3,11,18,11,143,18,13,02,326,09,33,30,211,30*43
$GPRMC,172809.000,A,4751.7488,N,00847.1151,E,0.00,152.17,300906,,,A*6C
$GPGGA,172810.000,4751.7488,N,00847.1151,E,1,05,1.7,638.1,M,0.0,M,,0000*65
$GPGSA,A,3,06,21,25,07,16,,,,,,,,3.8,1.7,3.4*3A
$GPRMC,172810.000,A,4751.7488,N,00847.1151,E,0.00,152.17,300906,,,A*64
$GPGGA,172811.000,4751.7488,N,00847.1151,E,1,05,1.7,638.0,M,0.0,M,,0000*65
$GPGSA,A,3,06,21,25,07,16,,,,,,,,3.8,1.7,3.4*3A
$GPRMC,172811.000,A,4751.7488,N,00847.1151,E,0.00,152.17,300906,,,A*65
$GPGGA,172812.000,4751.7488,N,00847.1151,E,1,05,1.7,637.9,M,0.0,M,,0000*60
$GPGSA,A,3,06,21,25,07,16,,,,,,,,3.8,1.7,3.4*3A
$GPRMC,172812.000,A,4751.7488,N,00847.1151,E,0.00,152.17,300906,,,A*66
$GPGGA,172813.000,4751.7488,N,00847.1151,E,1,05,1.7,637.9,M,0.0,M,,0000*61
$GPGSA,A,3,06,21,25,07,16,,,,,,,,3.8,1.7,3.4*3A
$GPRMC,172813.000,A,4751.7488,N,00847.1151,E,0.00,152.17,300906,,,A*67
$GPGGA,172814.000,4751.7488,N,00847.1151,E,1,05,1.7,637.8,M,0.0,M,,0000*67
$GPGSA,A,3,06,21,25,07,16,,,,,,,,3.8,1.7,3.4*3A
$GPGSV,3,1,11,21,70,150,30,07,60,280,38,16,50,302,38,06,45,077,28*7D
$GPGSV,3,2,11,25,30,229,33,30,14,135,25,03,13,271,25,10,13,035,14*71
$GPGSV,3,3,11,18,12,143,18,13,02,326,,33,30,211,29*41
$GPRMC,172814.000,A,4751.7488,N,00847.1151,E,0.00,152.17,300906,,,A*60
$GPGGA,172815.000,4751.7488,N,00847.1151,E,1,05,1.7,637.7,M,0.0,M,,0000*69
$GPGSA,A,3,06,21,25,07,16,,,,,,,,3.8,1.7,3.4*3A
$GPRMC,172815.000,A,4751.7488,N,00847.1151,E,0.00,152.17,300906,,,A*61
$GPGGA,172816.000,4751.7489,N,00847.1152,E,1,05,1.7,637.7,M,0.0,M,,0000*68
$GPGSA,A,3,06,21,25,07,16,,,,,,,,3.8,1.7,3.4*3A
$GPRMC,172816.000,A,4751.7489,N,00847.1152,E,0.00,152.17,300906,,,A*60
$GPGGA,172817.000,4751.7489,N,00847.1152,E,1,05,1.7,637.6,M,0.0,M,,0000*68
$GPGSA,A,3,06,21,25,07,16,,,,,,,,3.8,1.7,3.4*3A
$GPRMC,172817.000,A,4751.7489,N,00847.1152,E,0.00,152.17,300906,,,A*61
$GPGGA,172818.000,4751.7489,N,00847.1152,E,1,05,1.7,637.6,M,0.0,M,,0000*67
$GPGSA,A,3,06,21,25,07,16,,,,,,,,3.8,1.7,3.4*3A
$GPRMC,172818.000,A,4751.7489,N,00847.1152,E,0.00,152.17,300906,,,A*6E
$GPGGA,172819.000,4751.7489,N,00847.1152,E,1,05,1.7,637.5,M,0.0,M,,0000*65
$GPGSA,A,3,06,21,25,07,16,,,,,,,,3.8,1.7,3.4*3A
$GPGSV,3,1,11,21,70,150,30,07,60,280,38,16,50,302,39,06,45,077,28*7C
$GPGSV,3,2,11,25,30,229,33,30,14,135,26,03,13,271,25,10,12,035,*76
$GPGSV,3,3,11,18,12,143,18,13,02,326,,33,30,211,29*41
$GPRMC,172819.000,A,4751.7489,N,00847.1152,E,0.00,152.17,300906,,,A*6F
$GPGGA,172820.000,4751.7489,N,00847.1153,E,1,05,1.7,637.4,M,0.0,M,,0000*6F
$GPGSA,A,3,06,21,25,07,16,,,,,,,,3.8,1.7,3.4*3A
$GPRMC,172820.000,A,4751.7489,N,00847.1153,E,0.00,152.17,300906,,,A*64
$GPGGA,172821.000,4751.7489,N,00847.1153,E,1,05,1.7,637.3,M,0.0,M,,0000*69
$GPGSA,A,3,06,21,25,07,16,,,,,,,,3.8,1.7,3.4*3A
$GPRMC,172821.000,A,4751.7489,N,00847.1153,E,0.00,152.17,300906,,,A*65
$GPGGA,172822.000,4751.7489,N,00847.1153,E,1,05,1.7,637.3,M,0.0,M,,0000*6A
$GPGSA,A,3,06,21,25,07,16,,,,,,,,3.8,1.7,3.4*3A
$GPRMC,172822.000,A,4751.7489,N,00847.1153,E,0.00,152.17,300906,,,A*66
$GPGGA,172823.000,4751.7489,N,00847.1153,E,1,05,1.7,637.2,M,0.0,M,,0000*6A
$GPGSA,A,3,06,21,25,07,16,,,,,,,,3.8,1.7,3.4*3A
$GPRMC,172823.000,A,4751.7489,N,00847.1153,E,0.00,152.17,300906,,,A*67
$GPGGA,172824.000,4751.7489,N,00847.1153,E,1,05,1.7,637.1,M,0.0,M,,0000*6E
$GPGSA,A,3,06,21,25,07,16,,,,,,,,3.8,1.7,3.4*3A
$GPGSV,3,1,10,21,70,150,30,07,60,280,38,16,50,302,39,06,45,077,28*7D
$GPGSV,3,2,10,25,30,229,33,30,14,135,26,03,13,271,25,10,12,035,10*76
$GPGSV,3,3,10,18,12,143,18,13,02,326,*7A
$GPRMC,172824.000,A,4751.7489,N,00847.1153,E,0.00,152.17,300906,,,A*60
$GPGGA,172825.000,4751.7489,N,00847.1154,E,1,05,1.7,637.0,M,0.0,M,,0000*69
$GPGSA,A,3,06,21,25,07,16,,,,,,,,3.8,1.7,3.4*3A
$GPRMC,172825.000,A,4751.7489,N,00847.1154,E,0.00,152.17,300906,,,A*66
$GPGGA,172826.000,4751.7490,N,00847.1154,E,1,05,1.7,636.9,M,0.0,M,,0000*6A
$GPGSA,A,3,06,21,25,07,16,,,,,,,,3.8,1.7,3.4*3A
$GPRMC,172826.000,A,4751.7490,N,00847.1154,E,0.00,152.17,300906,,,A*6D
$GPGGA,172827.000,4751.7490,N,00847.1154,E,1,05,1.7,636.9,M,0.0,M,,0000*6B
$GPGSA,A,3,06,21,25,07,16,,,,,,,,3.8,1.7,3.4*3A
$GPRMC,172827.000,A,4751.7490,N,00847.1154,E,0.00,152.17,300906,,,A*6C
$GPGGA,172828.000,4751.7490,N,00847.1154,E,1,05,1.7,636.8,M,0.0,M,,0000*65
$GPGSA,A,3,06,21,25,07,16,,,,,,,,3.8,1.7,3.4*3A
$GPRMC,172828.000,A,4751.7490,N,00847.1154,E,0.00,152.17,300906,,,A*63
$GPGGA,172829.000,4751.7490,N,00847.1154,E,1,05,1.7,636.7,M,0.0,M,,0000*6B
$GPGSA,A,3,06,21,25,07,16,,,,,,,,3.8,1.7,3.4*3A
$GPGSV,3,1,10,21,70,150,30,07,60,280,38,16,50,302,39,06,45,077,28*7D
$GPGSV,3,2,10,25,30,229,32,30,14,135,26,03,13,271,24,10,12,035,*77
$GPGSV,3,3,10,18,12,143,19,13,02,326,*7B
$GPRMC,172829.000,A,4751.7490,N,00847.1154,E,0.00,152.17,300906,,,A*62
$GPGGA,172830.000,4751.7490,N,00847.1155,E,1,05,1.7,636.6,M,0.0,M,,0000*63
$GPGSA,A,3,06,21,25,07,16,,,,,,,,3.8,1.7,3.4*3A
$GPRMC,172830.000,A,4751.7490,N,00847.1155,E,0.00,152.17,300906,,,A*6B
$GPGGA,172831.000,4751.7490,N,00847.1155,E,1,05,1.7,636.5,M,0.0,M,,0000*61
$GPGSA,A,3,06,21,25,07,16,,,,,,,,3.8,1.7,3.4*3A
$GPRMC,172831.000,A,4751.7490,N,00847.1155,E,0.00,152.17,300906,,,A*6A
$GPGGA,172832.000,4751.7490,N,00847.1155,E,1,05,1.7,636.5,M,0.0,M,,0000*62
$GPGSA,A,3,06,21,25,07,16,,,,,,,,3.8,1.7,3.4*3A
$GPRMC,172832.000,A,4751.7490,N,00847.1155,E,0.00,152.17,300906,,,A*69
