$GPGGA,052110.069,3731.4255,N,12644.0186,E,1,06,1.5,6.3,M,18.8,M,,0000*58
$GPGSA,A,3,27,11,19,08,28,03,,,,,,,2.6,1.5,2.2*3E
$GPGSV,3,1,09,11,80,179,30,19,47,052,36,08,44,274,32,27,41,233,30*76
$GPGSV,3,2,09,28,33,312,23,03,16,076,36,24,12,212,11,20,10,160,*7A
$GPGSV,3,3,09,22,05,038,12*4D
$GPRMC,052110.069,A,3731.4255,N,12644.0186,E,45.39,88.42,131205,,,A*65
$GPGGA,052111.069,3731.4255,N,12644.0334,E,1,06,1.5,5.0,M,18.8,M,,0000*52
$GPGSA,A,3,27,11,19,08,28,03,,,,,,,2.6,1.5,2.2*3E
$GPRMC,052111.069,A,3731.4255,N,12644.0334,E,44.17,88.62,131205,,,A*60
$GPGGA,052112.069,3731.4240,N,12644.0502,E,1,06,1.5,4.1,M,18.8,M,,0000*56
$GPGSA,A,3,27,11,19,08,28,03,,,,,,,2.6,1.5,2.2*3E
$GPRMC,052112.069,A,3731.4240,N,12644.0502,E,44.38,88.84,131205,,,A*61
$GPGGA,052113.069,3731.4231,N,12644.0666,E,1,06,1.5,2.5,M,18.8,M,,0000*52
$GPGSA,A,3,27,11,19,08,28,03,,,,,,,2.6,1.5,2.2*3E
$GPRMC,052113.069,A,3731.4231,N,12644.0666,E,44.59,88.63,131205,,,A*69
$GPGGA,052114.069,3731.4224,N,12644.0832,E,1,06,1.5,2.8,M,18.8,M,,0000*53
$GPGSA,A,3,27,11,19,08,28,03,,,,,,,2.6,1.5,2.2*3E
$GPRMC,052114.069,A,3731.4224,N,12644.0832,E,45.31,90.77,131205,,,A*66
$GPGGA,052115.069,3731.4220,N,12644.0993,E,1,06,1.5,2.9,M,18.8,M,,0000*5D
$GPGSA,A,3,27,11,19,08,28,03,,,,,,,2.6,1.5,2.2*3E
$GPGSV,3,1,09,11,80,179,30,19,47,052,36,08,44,274,30,27,41,233,30*74
$GPGSV,3,2,09,28,33,312,19,03,16,076,35,24,12,212,,20,10,160,*70
$GPGSV,3,3,09,22,05,038,12*4D
$GPRMC,052115.069,A,3731.4220,N,12644.0993,E,44.89,91.14,131205,,,A*6F
$GPGGA,052116.069,3731.4218,N,12644.1156,E,1,06,1.5,3.5,M,18.8,M,,0000*58
$GPGSA,A,3,27,11,19,08,28,03,,,,,,,2.6,1.5,2.2*3E
$GPRMC,052116.069,A,3731.4218,N,12644.1156,E,44.91,89.63,131205,,,A*67
$GPGGA,052117.069,3731.4214,N,12644.1315,E,1,06,1.5,1.8,M,18.8,M,,0000*5F
$GPGSA,A,3,27,11,19,08,28,03,,,,,,,2.6,1.5,2.2*3E
$GPRMC,052117.069,A,3731.4214,N,12644.1315,E,45.26,89.31,131205,,,A*65
$GPGGA,052118.069,3731.4215,N,12644.1476,E,1,06,1.5,1.5,M,18.8,M,,0000*5E
$GPGSA,A,3,27,11,19,08,28,03,,,,,,,2.6,1.5,2.2*3E
$GPRMC,052118.069,A,3731.4215,N,12644.1476,E,45.95,89.23,131205,,,A*62
$GPGGA,052119.069,3731.4218,N,12644.1637,E,1,06,1.5,2.2,M,18.8,M,,0000*51
$GPGSA,A,3,27,11,19,08,28,03,,,,,,,2.6,1.5,2.2*3E
$GPRMC,052119.069,A,3731.4218,N,12644.1637,E,45.91,89.00,131205,,,A*6C
$GPGGA,052120.068,3731.4220,N,12644.1799,E,1,06,1.5,3.6,M,18.8,M,,0000*51
$GPGSA,A,3,27,11,19,08,28,03,,,,,,,2.6,1.5,2.2*3E
$GPGSV,3,1,09,11,80,178,28,19,46,052,36,08,44,274,29,27,40,233,29*7C
$GPGSV,3,2,09,28,33,312,19,03,15,076,35,24,13,212,,20,10,160,*72
$GPGSV,3,3,09,22,05,038,25*49
$GPRMC,052120.068,A,3731.4220,N,12644.1799,E,46.42,89.10,131205,,,A*65
$GPGGA,052121.068,3731.4219,N,12644.1964,E,1,06,1.5,5.5,M,18.8,M,,0000*53
$GPGSA,A,3,27,11,19,08,28,03,,,,,,,2.6,1.5,2.2*3E
$GPRMC,052121.068,A,3731.4219,N,12644.1964,E,47.81,90.68,131205,,,A*6B
$GPGGA,052122.068,3731.4220,N,12644.2133,E,1,06,1.5,6.9,M,18.8,M,,0000*5C
$GPGSA,A,3,27,11,19,08,28,03,,,,,,,2.6,1.5,2.2*3E
$GPRMC,052122.068,A,3731.4220,N,12644.2133,E,47.99,90.07,131205,,,A*6B
$GPGGA,052123.068,3731.4221,N,12644.2303,E,1,06,1.5,8.3,M,18.8,M,,0000*59
$GPGSA,A,3,27,11,19,08,28,03,,,,,,,2.6,1.5,2.2*3E
$GPRMC,052123.068,A,3731.4221,N,12644.2303,E,48.67,89.86,131205,,,A*65
$GPGGA,052124.068,3731.4220,N,12644.2474,E,1,06,1.5,7.5,M,18.8,M,,0000*51
$GPGSA,A,3,27,11,19,08,28,03,,,,,,,2.6,1.5,2.2*3E
$GPRMC,052124.068,A,3731.4220,N,12644.2474,E,49.35,90.48,131205,,,A*68
$GPGGA,052125.068,3731.4221,N,12644.2647,E,1,06,1.5,6.7,M,18.8,M,,0000*50
$GPGSA,A,3,27,11,19,08,28,03,,,,,,,2.6,1.5,2.2*3E
$GPGSV,3,1,09,11,80,178,30,19,46,052,36,08,44,274,30,27,40,233,30*75
$GPGSV,3,2,09,28,33,312,21,03,15,076,35,24,13,212,,20,10,160,*79
$GPGSV,3,3,09,22,05,038,27*4B
$GPRMC,052125.068,A,3731.4221,N,12644.2647,E,49.69,89.05,131205,,,A*62
$GPGGA,052126.068,3731.4226,N,12644.2820,E,1,06,1.5,5.9,M,18.8,M,,0000*56
$GPGSA,A,3,27,11,19,08,28,03,,,,,,,2.6,1.5,2.2*3E
$GPRMC,052126.068,A,3731.4226,N,12644.2820,E,49.56,88.42,131205,,,A*67
$GPGGA,052127.068,3731.4228,N,12644.2995,E,1,06,1.5,5.7,M,18.8,M,,0000*58
$GPGSA,A,3,27,11,19,08,28,03,,,,,,,2.6,1.5,2.2*3E
$GPRMC,052127.068,A,3731.4228,N,12644.2995,E,50.53,89.52,131205,,,A*6A
$GPGGA,052128.068,3731.4229,N,12644.3168,E,1,06,1.5,8.3,M,18.8,M,,0000*54
$GPGSA,A,3,27,11,19,08,28,03,,,,,,,2.6,1.5,2.2*3E
$GPRMC,052128.068,A,3731.4229,N,12644.3168,E,50.83,90.02,131205,,,A*6F
$GPGGA,052129.068,3731.4238,N,12644.3348,E,1,06,1.5,8.8,M,18.8,M,,0000*5E
$GPGSA,A,3,27,11,19,08,28,03,,,,,,,2.6,1.5,2.2*3E
$GPRMC,052129.068,A,3731.4238,N,12644.3348,E,51.05,89.63,131205,,,A*6E
$GPGGA,052130.068,3731.4241,N,12644.3525,E,1,06,1.5,7.8,M,18.8,M,,0000*5A
$GPGSA,A,3,27,11,19,08,28,03,,,,,,,2.6,1.5,2.2*3E
$GPGSV,3,1,09,11,80,178,27,19,46,052,34,08,44,274,31,27,40,233,30*70
$GPGSV,3,2,09,28,33,312,22,03,15,076,34,24,13,212,,20,10,160,*7B
$GPGSV,3,3,09,22,05,038,19*46
$GPRMC,052130.068,A,3731.4241,N,12644.3525,E,51.56,90.10,131205,,,A*6F
$GPGGA,052131.068,3731.4243,N,12644.3696,E,1,06,1.5,6.7,M,18.8,M,,0000*5C
$GPGSA,A,3,27,11,19,08,28,03,,,,,,,2.6,1.5,2.2*3E
$GPRMC,052131.068,A,3731.4243,N,12644.3696,E,52.02,90.49,131205,,,A*69
$GPGGA,052132.068,3731.4244,N,12644.3875,E,1,06,1.5,6.1,M,18.8,M,,0000*5D
$GPGSA,A,3,27,11,19,08,28,03,,,,,,,2.6,1.5,2.2*3E
$GPRMC,052132.068,A,3731.4244,N,12644.3875,E,52.29,89.84,131205,,,A*6E
$GPGGA,052133.068,3731.4246,N,12644.4057,E,1,06,1.5,7.3,M,18.8,M,,0000*52
$GPGSA,A,3,27,11,19,08,28,03,,,,,,,2.6,1.5,2.2*3E
$GPRMC,052133.068,A,3731.4246,N,12644.4057,E,52.54,89.35,131205,,,A*62
$GPGGA,052134.068,3731.4245,N,12644.4247,E,1,06,1.5,10.3,M,18.8,M,,0000*63
$GPGSA,A,3,27,11,19,08,28,03,,,,,,,2.6,1.5,2.2*3E
$GPRMC,052134.068,A,3731.4245,N,12644.4247,E,52.91,89.70,131205,,,A*6D
$GPGGA,052135.068,3731.4248,N,12644.4433,E,1,06,1.5,12.4,M,18.8,M,,0000*6F
$GPGSA,A,3,27,11,19,08,28,03,,,,,,,2.6,1.5,2.2*3E
$GPGSV,3,1,09,11,80,178,29,19,46,052,35,08,44,274,30,27,40,233,31*7F
$GPGSV,3,2,09,28,33,312,20,03,15,076,34,24,13,212,,20,10,160,*79
$GPGSV,3,3,09,22,05,038,28*44
$GPRMC,052135.068,A,3731.4248,N,12644.4433,E,52.84,89.14,131205,,,A*62
$GPGGA,052136.068,3731.4249,N,12644.4619,E,1,06,1.5,14.0,M,18.8,M,,0000*65
$GPGSA,A,3,27,11,19,08,28,03,,,,,,,2.6,1.5,2.2*3E
$GPRMC,052136.068,A,3731.4249,N,12644.4619,E,53.20,89.11,131205,,,A*60
$GPGGA,052137.067,3731.4249,N,12644.4803,E,1,06,1.5,14.2,M,18.8,M,,0000*6C
$GPGSA,A,3,27,11,19,08,28,03,,,,,,,2.6,1.5,2.2*3E
$GPRMC,052137.067,A,3731.4249,N,12644.4803,E,53.33,89.01,131205,,,A*68
$GPGGA,052138.067,3731.4251,N,12644.4993,E,1,06,1.5,13.0,M,18.8,M,,0000*67
$GPGSA,A,3,27,11,19,08,28,03,,,,,,,2.6,1.5,2.2*3E
$GPRMC,052138.067,A,3731.4251,N,12644.4993,E,52.64,89.90,131205,,,A*6D
$GPGGA,052139.067,3731.4257,N,12644.5179,E,1,06,1.5,11.9,M,18.8,M,,0000*66
$GPGSA,A,3,27,11,19,08,28,03,,,,,,,2.6,1.5,2.2*3E
$GPRMC,052139.067,A,3731.4257,N,12644.5179,E,51.49,90.04,131205,,,A*6E
$GPGGA,052140.067,3731.4259,N,12644.5357,E,1,06,1.5,11.1,M,18.8,M,,0000*60
$GPGSA,A,3,27,11,19,08,28,03,,,,,,,2.6,1.5,2.2*3E
$GPGSV,3,1,09,11,80,178,31,19,46,052,34,08,44,274,29,27,40,233,30*7E
$GPGSV,3,2,09,28,33,312,18,03,15,076,35,24,13,212,,20,10,160,*73
$GPGSV,3,3,09,22,05,038,33*4E
$GPRMC,052140.067,A,3731.4259,N,12644.5357,E,50.30,89.48,131205,,,A*6F
$GPGGA,052141.067,3731.4261,N,12644.5525,E,1,06,1.5,11.0,M,18.8,M,,0000*68
$GPGSA,A,3,27,11,19,08,28,03,,,,,,,2.6,1.5,2.2*3E
$GPRMC,052141.067,A,3731.4261,N,12644.5525,E,48.97,88.76,131205,,,A*6E
$GPGGA,052142.067,3731.4262,N,12644.5689,E,1,06,1.5,9.0,M,18.8,M,,0000*54
$GPGSA,A,3,27,11,19,08,28,03,,,,,,,2.6,1.5,2.2*3E
$GPRMC,052142.067,A,3731.4262,N,12644.5689,E,48.02,89.08,131205,,,A*6F
$GPGGA,052143.067,3731.4264,N,12644.5849,E,1,06,1.5,8.3,M,18.8,M,,0000*53
$GPGSA,A,3,27,11,19,08,28,03,,,,,,,2.6,1.5,2.2*3E
$GPRMC,052143.067,A,3731.4264,N,12644.5849,E,46.45,88.54,131205,,,A*6F
$GPGGA,052144.067,3731.4266,N,12644.6009,E,1,06,1.5,7.2,M,18.8,M,,0000*57
$GPGSA,A,3,27,11,19,08,28,03,,,,,,,2.6,1.5,2.1*3D
$GPRMC,052144.067,A,3731.4266,N,12644.6009,E,45.36,88.61,131205,,,A*64
$GPGGA,052145.067,3731.4269,N,12644.6161,E,1,06,1.5,6.6,M,18.8,M,,0000*53
$GPGSA,A,3,27,11,19,08,28,03,,,,,,,2.6,1.5,2.1*3D
$GPGSV,3,1,09,11,80,178,30,19,46,052,34,08,44,274,29,27,40,233,29*77
$GPGSV,3,2,09,28,33,312,19,03,15,076,34,24,13,212,,20,10,160,*73
$GPGSV,3,3,09,22,05,038,23*4F
$GPRMC,052145.067,A,3731.4269,N,12644.6161,E,44.14,88.93,131205,,,A*69
$GPGGA,052146.067,3731.4269,N,12644.6312,E,1,06,1.5,7.3,M,18.8,M,,0000*52
$GPGSA,A,3,27,11,19,08,28,03,,,,,,,2.6,1.5,2.1*3D
$GPRMC,052146.067,A,3731.4269,N,12644.6312,E,42.95,88.97,131205,,,A*67
$GPGGA,052147.067,3731.4269,N,12644.6454,E,1,06,1.5,7.3,M,18.8,M,,0000*56
$GPGSA,A,3,27,11,19,08,28,03,,,,,,,2.6,1.5,2.1*3D
$GPRMC,052147.067,A,3731.4269,N,12644.6454,E,42.17,89.99,131205,,,A*66
$GPGGA,052148.067,3731.4271,N,12644.6606,E,1,06,1.5,7.9,M,18.8,M,,0000*5F
$GPGSA,A,3,27,11,19,08,28,03,,,,,,,2.6,1.5,2.1*3D
$GPRMC,052148.067,A,3731.4271,N,12644.6606,E,41.07,90.00,131205,,,A*6F
$GPGGA,052149.067,3731.4274,N,12644.6746,E,1,06,1.5,10.7,M,18.8,M,,0000*66
$GPGSA,A,3,27,11,19,08,28,03,,,,,,,2.6,1.5,2.1*3D
$GPRMC,052149.067,A,3731.4274,N,12644.6746,E,40.07,90.41,131205,,,A*6A
$GPGGA,052150.067,3731.4277,N,12644.6882,E,1,06,1.5,12.4,M,18.8,M,,0000*6B
$GPGSA,A,3,27,11,19,08,28,03,,,,,,,2.6,1.5,2.1*3D
$GPGSV,3,1,09,11,80,177,28,19,46,052,33,08,44,274,30,27,40,233,29*7E
$GPGSV,3,2,09,28,33,312,18,03,15,076,35,24,13,212,,20,10,160,*73
$GPGSV,3,3,09,22,05,038,32*4F
$GPRMC,052150.067,A,3731.4277,N,12644.6882,E,38.74,89.72,131205,,,A*65
$GPGGA,052151.067,3731.4279,N,12644.7008,E,1,06,1.5,12.1,M,18.8,M,,0000*6A
$GPGSA,A,3,27,11,19,08,28,03,,,,,,,2.6,1.5,2.1*3D
$GPRMC,052151.067,A,3731.4279,N,12644.7008,E,37.71,90.04,131205,,,A*62
$GPGGA,052152.067,3731.4281,N,12644.7139,E,1,06,1.5,11.3,M,18.8,M,,0000*6C
$GPGSA,A,3,27,11,19,08,28,03,,,,,,,2.6,1.5,2.1*3D
$GPRMC,052152.067,A,3731.4281,N,12644.7139,E,36.46,89.28,131205,,,A*66
$GPGGA,052153.066,3731.4284,N,12644.7261,E,1,06,1.5,12.2,M,18.8,M,,0000*65
$GPGSA,A,3,27,11,19,08,28,03,,,,,,,2.6,1.5,2.1*3D
$GPRMC,052153.066,A,3731.4284,N,12644.7261,E,35.41,89.26,131205,,,A*67
$GPGGA,052154.066,3731.4284,N,12644.7379,E,1,06,1.5,11.5,M,18.8,M,,0000*6E
$GPGSA,A,3,27,11,19,08,28,03,,,,,,,2.6,1.5,2.1*3D
$GPRMC,052154.066,A,3731.4284,N,12644.7379,E,34.50,89.94,131205,,,A*60
$GPGGA,052155.066,3731.4286,N,12644.7499,E,1,06,1.5,12.8,M,18.8,M,,0000*6A
$GPGSA,A,3,27,11,19,08,28,03,,,,,,,2.6,1.5,2.1*3D
$GPGSV,3,1,09,11,80,177,28,19,46,052,33,08,44,274,30,27,40,233,30*76
$GPGSV,3,2,09,28,33,312,19,03,15,076,33,24,13,212,,20,10,160,*74
$GPGSV,3,3,09,22,05,038,33*4E
$GPRMC,052155.066,A,3731.4286,N,12644.7499,E,33.37,90.11,131205,,,A*69
$GPGGA,052156.066,3731.4288,N,12644.7609,E,1,06,1.5,12.7,M,18.8,M,,0000*63
$GPGSA,A,3,27,11,19,08,28,03,,,,,,,2.6,1.5,2.1*3D
$GPRMC,052156.066,A,3731.4288,N,12644.7609,E,32.35,91.37,131205,,,A*69
$GPGGA,052157.066,3731.4281,N,12644.7719,E,1,06,1.5,12.5,M,18.8,M,,0000*69
$GPGSA,A,3,27,11,19,08,28,03,,,,,,,2.6,1.5,2.1*3D
$GPRMC,052157.066,A,3731.4281,N,12644.7719,E,31.10,97.08,131205,,,A*6F
$GPGGA,052158.066,3731.4267,N,12644.7819,E,1,06,1.5,13.7,M,18.8,M,,0000*62
$GPGSA,A,3,27,11,19,08,28,03,,,,,,,2.6,1.5,2.1*3D
$GPRMC,052158.066,A,3731.4267,N,12644.7819,E,27.98,100.44,131205,,,A*57
$GPGGA,052159.066,3731.4259,N,12644.7919,E,1,06,1.5,12.4,M,18.8,M,,0000*6D
$GPGSA,A,3,27,11,19,08,28,03,,,,,,,2.6,1.5,2.1*3D
$GPRMC,052159.066,A,3731.4259,N,12644.7919,E,25.12,99.97,131205,,,A*65
$GPGGA,052200.066,3731.4253,N,12644.7996,E,1,06,1.5,12.4,M,18.8,M,,0000*6F
$GPGSA,A,3,27,11,19,08,28,03,,,,,,,2.6,1.5,2.1*3D
$GPGSV,3,1,09,11,80,177,26,19,46,052,35,08,44,274,30,27,40,233,29*76
$GPGSV,3,2,09,28,33,312,24,03,15,076,35,24,13,212,,20,10,160,*7C
$GPGSV,3,3,09,22,05,038,27*4B
$GPRMC,052200.066,A,3731.4253,N,12644.7996,E,24.55,99.86,131205,,,A*65
$GPGGA,052201.066,3731.4239,N,12644.8068,E,1,06,1.5,15.0,M,18.8,M,,0000*66
$GPGSA,A,3,27,11,19,08,28,03,,,,,,,2.6,1.5,2.1*3D
$GPRMC,052201.066,A,3731.4239,N,12644.8068,E,24.52,101.58,131205,,,A*5B
$GPGGA,052202.066,3731.4224,N,12644.8148,E,1,06,1.5,15.6,M,18.8,M,,0000*6C
$GPGSA,A,3,27,11,19,08,28,03,,,,,,,2.6,1.5,2.1*3D
$GPRMC,052202.066,A,3731.4224,N,12644.8148,E,24.59,101.20,131205,,,A*53
$GPGGA,052203.066,3731.4218,N,12644.8228,E,1,06,1.5,14.7,M,18.8,M,,0000*67
$GPGSA,A,3,27,11,19,08,28,03,,,,,,,2.6,1.5,2.1*3D
$GPRMC,052203.066,A,3731.4218,N,12644.8228,E,24.56,100.05,131205,,,A*51
$GPGGA,052204.066,3731.4212,N,12644.8309,E,1,06,1.5,13.7,M,18.8,M,,0000*6F
$GPGSA,A,3,27,11,19,08,28,03,,,,,,,2.6,1.5,2.1*3D
$GPRMC,052204.066,A,3731.4212,N,12644.8309,E,23.21,99.34,131205,,,A*6A
$GPGGA,052205.066,3731.4207,N,12644.8379,E,1,05,2.3,13.5,M,18.8,M,,0000*69
$GPGSA,A,3,27,11,19,08,03,,,,,,,,3.2,2.3,2.2*34
$GPGSV,3,1,09,11,80,177,26,19,46,052,35,08,44,274,27,27,40,233,28*71
$GPGSV,3,2,09,28,33,312,22,03,15,076,33,24,13,212,,20,10,160,27*79
$GPGSV,3,3,09,22,05,038,27*4B
$GPRMC,052205.066,A,3731.4207,N,12644.8379,E,20.26,100.14,131205,,,A*5F
$GPGGA,052206.066,3731.4204,N,12644.8438,E,1,06,1.5,14.1,M,18.8,M,,0000*6E
$GPGSA,A,3,27,11,19,08,28,03,,,,,,,2.6,1.5,2.1*3D
$GPRMC,052206.066,A,3731.4204,N,12644.8438,E,16.64,99.20,131205,,,A*68
$GPGGA,052207.066,3731.4205,N,12644.8479,E,1,06,1.5,14.9,M,18.8,M,,0000*63
$GPGSA,A,3,27,11,19,08,28,03,,,,,,,2.6,1.5,2.1*3D
$GPRMC,052207.066,A,3731.4205,N,12644.8479,E,12.34,93.33,131205,,,A*64
$GPGGA,052208.066,3731.4202,N,12644.8514,E,1,06,1.5,18.2,M,18.8,M,,0000*66
$GPGSA,A,3,27,11,19,08,28,03,,,,,,,2.6,1.5,2.1*3D
$GPRMC,052208.066,A,3731.4202,N,12644.8514,E,10.21,93.36,131205,,,A*65
$GPGGA,052209.066,3731.4200,N,12644.8542,E,1,06,1.5,19.3,M,18.8,M,,0000*66
$GPGSA,A,3,27,11,19,08,28,03,,,,,,,2.6,1.5,2.1*3D
$GPRMC,052209.066,A,3731.4200,N,12644.8542,E,8.11,91.94,131205,,,A*55
$GPGGA,052210.065,3731.4197,N,12644.8561,E,1,06,1.5,20.0,M,18.8,M,,0000*68
$GPGSA,A,3,27,11,19,08,28,03,,,,,,,2.6,1.5,2.1*3D
$GPGSV,3,1,09,11,80,177,29,19,46,052,33,08,44,274,30,27,40,233,28*7E
$GPGSV,3,2,09,28,33,312,26,03,15,076,34,24,13,212,,20,10,160,31*7D
$GPGSV,3,3,09,22,05,038,32*4F
$GPRMC,052210.065,A,3731.4197,N,12644.8561,E,6.59,93.29,131205,,,A*54
$GPGGA,052211.065,3731.4193,N,12644.8578,E,1,06,1.5,18.4,M,18.8,M,,0000*6A
$GPGSA,A,3,27,11,19,08,28,03,,,,,,,2.6,1.5,2.1*3D
$GPRMC,052211.065,A,3731.4193,N,12644.8578,E,5.30,90.65,131205,,,A*5E
$GPGGA,052212.065,3731.4196,N,12644.8591,E,1,06,1.5,16.3,M,18.8,M,,0000*62
$GPGSA,A,3,27,11,19,08,28,03,,,,,,,2.6,1.5,2.1*3D
$GPRMC,052212.065,A,3731.4196,N,12644.8591,E,3.64,88.01,131205,,,A*53
$GPGGA,052213.065,3731.4196,N,12644.8599,E,1,06,1.5,14.6,M,18.8,M,,0000*6C
$GPGSA,A,3,27,11,19,08,28,03,,,,,,,2.6,1.5,2.1*3D
$GPRMC,052213.065,A,3731.4196,N,12644.8599,E,2.18,83.92,131205,,,A*51
$GPGGA,052214.065,3731.4196,N,12644.8606,E,1,06,1.5,14.6,M,18.8,M,,0000*6E
$GPGSA,A,3,27,11,19,08,28,03,,,,,,,2.6,1.5,2.1*3D
$GPRMC,052214.065,A,3731.4196,N,12644.8606,E,0.00,,131205,,,A*76
$GPGGA,052215.065,3731.4198,N,12644.8610,E,1,06,1.5,10.8,M,18.8,M,,0000*6C
$GPGSA,A,3,27,11,19,08,28,03,,,,,,,2.6,1.5,2.1*3D
$GPGSV,3,1,09,11,81,177,27,19,46,052,33,08,44,273,30,27,40,233,30*7F
$GPGSV,3,2,09,28,33,312,24,03,15,076,35,24,13,212,,20,10,160,31*7E
$GPGSV,3,3,09,22,05,038,29*45
$GPRMC,052215.065,A,3731.4198,N,12644.8610,E,2.00,90.36,131205,,,A*5E
$GPGGA,052216.065,3731.4197,N,12644.8612,E,1,06,1.5,9.0,M,18.8,M,,0000*52
$GPGSA,A,3,27,11,19,08,28,03,,,,,,,2.6,1.5,2.1*3D
$GPRMC,052216.065,A,3731.4197,N,12644.8612,E,2.58,98.19,131205,,,A*58
$GPGGA,052217.065,3731.4197,N,12644.8616,E,1,06,1.5,8.4,M,18.8,M,,0000*52
$GPGSA,A,3,27,11,19,08,28,03,,,,,,,2.6,1.5,2.1*3D
$GPRMC,052217.065,A,3731.4197,N,12644.8616,E,2.93,95.56,131205,,,A*5C
$GPGGA,052218.065,3731.4193,N,12644.8627,E,1,06,1.5,8.9,M,18.8,M,,0000*56
$GPGSA,A,3,27,11,19,08,28,03,,,,,,,2.6,1.5,2.1*3D
$GPRMC,052218.065,A,3731.4193,N,12644.8627,E,3.00,103.31,131205,,,A*61
$GPGGA,052219.065,3731.4193,N,12644.8640,E,1,06,1.5,7.4,M,18.8,M,,0000*54
$GPGSA,A,3,27,11,19,08,28,03,,,,,,,2.6,1.5,2.1*3D
$GPRMC,052219.065,A,3731.4193,N,12644.8640,E,3.21,96.53,131205,,,A*5B
$GPGGA,052220.065,3731.4193,N,12644.8645,E,1,06,1.5,6.0,M,18.8,M,,0000*5E
$GPGSA,A,3,27,11,19,08,28,03,,,,,,,2.6,1.5,2.1*3D
$GPGSV,3,1,09,11,81,177,29,19,46,052,35,08,44,273,29,27,40,233,30*7F
$GPGSV,3,2,09,28,33,312,27,03,15,077,32,24,13,212,,20,10,160,29*72
$GPGSV,3,3,09,22,05,038,28*44
$GPRMC,052220.065,A,3731.4193,N,12644.8645,E,3.28,93.15,131205,,,A*5A
$GPGGA,052221.065,3731.4192,N,12644.8658,E,1,06,1.5,7.5,M,18.8,M,,0000*56
$GPGSA,A,3,27,11,19,08,28,03,,,,,,,2.6,1.5,2.1*3D
$GPRMC,052221.065,A,3731.4192,N,12644.8658,E,3.37,84.12,131205,,,A*59
$GPGGA,052222.065,3731.4185,N,12644.8664,E,1,06,1.5,8.8,M,18.8,M,,0000*5E
$GPGSA,A,3,27,11,19,08,28,03,,,,,,,2.6,1.5,2.1*3D
$GPRMC,052222.065,A,3731.4185,N,12644.8664,E,3.05,85.77,131205,,,A*50
$GPGGA,052223.065,3731.4186,N,12644.8674,E,1,06,1.5,8.9,M,18.8,M,,0000*5C
$GPGSA,A,3,27,11,19,08,28,03,,,,,,,2.6,1.5,2.1*3D
$GPRMC,052223.065,A,3731.4186,N,12644.8674,E,1.96,107.19,131205,,,A*68
$GPGGA,052224.065,3731.4184,N,12644.8681,E,1,06,1.5,9.0,M,18.8,M,,0000*5B
$GPGSA,A,3,27,11,19,08,28,03,,,,,,,2.6,1.5,2.1*3D
$GPRMC,052224.065,A,3731.4184,N,12644.8681,E,0.00,,131205,,,A*79
$GPGGA,052225.065,3731.4184,N,12644.8681,E,1,06,1.5,9.0,M,18.8,M,,0000*5A
$GPGSA,A,3,27,11,19,08,28,03,,,,,,,2.6,1.5,2.1*3D
$GPGSV,3,1,09,11,81,177,30,19,46,052,33,08,44,273,31,27,40,233,32*7A
$GPGSV,3,2,09,28,33,312,20,03,15,077,36,24,13,212,,20,10,160,30*79
$GPGSV,3,3,09,22,05,038,28*44
$GPRMC,052225.065,A,3731.4184,N,12644.8681,E,0.00,,131205,,,A*78
$GPGGA,052226.064,3731.4184,N,12644.8681,E,1,06,1.5,9.0,M,18.8,M,,0000*58
$GPGSA,A,3,27,11,19,08,28,03,,,,,,,2.6,1.5,2.1*3D
$GPRMC,052226.064,A,3731.4184,N,12644.8681,E,0.00,,131205,,,A*7A
$GPGGA,052227.064,3731.4184,N,12644.8681,E,1,06,1.5,9.0,M,18.8,M,,0000*59
$GPGSA,A,3,27,11,19,08,28,03,,,,,,,2.6,1.5,2.1*3D
$GPRMC,052227.064,A,3731.4184,N,12644.8681,E,0.00,,131205,,,A*7B
$GPGGA,052228.064,3731.4184,N,12644.8681,E,1,06,1.5,9.0,M,18.8,M,,0000*56
$GPGSA,A,3,27,11,19,08,28,03,,,,,,,2.6,1.5,2.1*3D
$GPRMC,052228.064,A,3731.4184,N,12644.8681,E,0.00,,131205,,,A*74
$GPGGA,052229.064,3731.4184,N,12644.8701,E,1,06,1.5,10.2,M,18.8,M,,0000*64
$GPGSA,A,3,27,11,19,08,28,03,,,,,,,2.6,1.5,2.1*3D
$GPRMC,052229.064,A,3731.4184,N,12644.8701,E,1.83,71.37,131205,,,A*5A
$GPGGA,052230.064,3731.4185,N,12644.8704,E,1,05,2.3,12.0,M,18.8,M,,0000*6E
$GPGSA,A,3,27,11,19,08,03,,,,,,,,3.2,2.3,2.2*34
$GPGSV,3,1,09,11,81,177,29,19,46,052,34,08,44,273,29,27,40,233,31*7F
$GPGSV,3,2,09,28,33,312,23,03,15,077,34,24,13,212,24,20,10,160,32*7C
$GPGSV,3,3,09,22,05,038,20*4C
$GPRMC,052230.064,A,3731.4185,N,12644.8704,E,2.53,82.41,131205,,,A*55
$GPGGA,052231.064,3731.4185,N,12644.8708,E,1,05,2.3,12.4,M,18.8,M,,0000*67
$GPGSA,A,3,27,11,19,08,03,,,,,,,,3.2,2.3,2.2*34
$GPRMC,052231.064,A,3731.4185,N,12644.8708,E,3.04,87.03,131205,,,A*58
$GPGGA,052232.064,3731.4186,N,12644.8716,E,1,06,1.5,12.7,M,18.8,M,,0000*6D
$GPGSA,A,3,27,11,19,08,28,03,,,,,,,2.6,1.5,2.1*3D
$GPRMC,052232.064,A,3731.4186,N,12644.8716,E,3.16,75.37,131205,,,A*5E
$GPGGA,052233.064,3731.4180,N,12644.8726,E,1,06,1.5,13.7,M,18.8,M,,0000*68
$GPGSA,A,3,27,11,19,08,28,03,,,,,,,2.6,1.5,2.1*3D
$GPRMC,052233.064,A,3731.4180,N,12644.8726,E,2.45,96.54,131205,,,A*55
$GPGGA,052234.064,3731.4180,N,12644.8735,E,1,06,1.5,13.8,M,18.8,M,,0000*62
$GPGSA,A,3,27,11,19,08,28,03,,,,,,,2.6,1.5,2.1*3D
$GPRMC,052234.064,A,3731.4180,N,12644.8735,E,0.00,,131205,,,A*73
$GPGGA,052235.064,3731.4180,N,12644.8735,E,1,06,1.5,13.8,M,18.8,M,,0000*63
$GPGSA,A,3,27,11,19,08,28,03,,,,,,,2.6,1.5,2.1*3D
$GPGSV,3,1,09,11,81,177,29,19,46,052,34,08,44,273,31,27,40,233,29*7F
$GPGSV,3,2,09,28,33,312,24,03,15,077,37,24,13,212,20,20,10,160,28*77
$GPGSV,3,3,09,22,05,038,16*49
$GPRMC,052235.064,A,3731.4180,N,12644.8735,E,0.00,,131205,,,A*72
$GPGGA,052236.064,3731.4180,N,12644.8735,E,1,06,1.5,13.8,M,18.8,M,,0000*60
$GPGSA,A,3,27,11,19,08,28,03,,,,,,,2.6,1.5,2.1*3D
$GPRMC,052236.064,A,3731.4180,N,12644.8735,E,0.00,,131205,,,A*71
$GPGGA,052237.064,3731.4180,N,12644.8735,E,1,06,1.5,13.8,M,18.8,M,,0000*61
$GPGSA,A,3,27,11,19,08,28,03,,,,,,,2.6,1.5,2.1*3D
$GPRMC,052237.064,A,3731.4180,N,12644.8735,E,0.00,,131205,,,A*70
$GPGGA,052238.064,3731.4180,N,12644.8735,E,1,06,1.5,13.8,M,18.8,M,,0000*6E
$GPGSA,A,3,27,11,19,08,28,03,,,,,,,2.6,1.5,2.1*3D
$GPRMC,052238.064,A,3731.4180,N,12644.8735,E,0.00,,131205,,,A*7F
$GPGGA,052239.064,3731.4184,N,12644.8752,E,1,06,1.5,11.2,M,18.8,M,,0000*62
$GPGSA,A,3,27,11,19,08,28,03,,,,,,,2.6,1.5,2.1*3D
$GPRMC,052239.064,A,3731.4184,N,12644.8752,E,3.88,81.85,131205,,,A*52
$GPGGA,052240.064,3731.4183,N,12644.8776,E,1,06,1.5,13.5,M,18.8,M,,0000*68
$GPGSA,A,3,27,11,19,08,28,03,,,,,,,2.6,1.5,2.1*3D
$GPGSV,3,1,09,11,81,177,29,19,46,052,35,08,44,273,30,27,40,233,30*77
$GPGSV,3,2,09,28,33,312,24,03,15,077,35,24,13,212,24,20,10,160,23*7A
$GPGSV,3,3,09,22,05,038,16*49
$GPRMC,052240.064,A,3731.4183,N,12644.8776,E,5.02,89.17,131205,,,A*5A
$GPGGA,052241.064,3731.4180,N,12644.8788,E,1,06,1.5,13.4,M,18.8,M,,0000*6A
$GPGSA,A,3,27,11,19,08,28,03,,,,,,,2.6,1.5,2.1*3D
$GPRMC,052241.064,A,3731.4180,N,12644.8788,E,2.61,85.97,131205,,,A*5F
$GPGGA,052242.064,3731.4181,N,12644.8798,E,1,06,1.5,13.5,M,18.8,M,,0000*68
$GPGSA,A,3,27,11,19,08,28,03,,,,,,,2.6,1.5,2.1*3D
$GPRMC,052242.064,A,3731.4181,N,12644.8798,E,0.00,,131205,,,A*74
$GPGGA,052243.063,3731.4181,N,12644.8798,E,1,06,1.5,13.5,M,18.8,M,,0000*6E
$GPGSA,A,3,27,11,19,08,28,03,,,,,,,2.6,1.5,2.1*3D
$GPRMC,052243.063,A,3731.4181,N,12644.8798,E,0.00,,131205,,,A*72
$GPGGA,052244.063,3731.4181,N,12644.8798,E,1,06,1.5,13.5,M,18.8,M,,0000*69
$GPGSA,A,3,27,11,19,08,28,03,,,,,,,2.6,1.5,2.1*3D
$GPRMC,052244.063,A,3731.4181,N,12644.8798,E,0.00,,131205,,,A*75
$GPGGA,052245.063,3731.4181,N,12644.8798,E,1,06,1.5,13.5,M,18.8,M,,0000*68
$GPGSA,A,3,27,11,19,08,28,03,,,,,,,2.6,1.5,2.1*3D
$GPGSV,3,1,09,11,81,177,27,19,46,052,34,08,44,273,29,27,40,233,32*72
$GPGSV,3,2,09,28,33,312,29,03,15,077,38,24,13,212,27,20,10,160,17*7E
$GPGSV,3,3,09,22,05,038,25*49
$GPRMC,052245.063,A,3731.4181,N,12644.8798,E,0.00,,131205,,,A*74
$GPGGA,052246.063,3731.4181,N,12644.8798,E,1,06,1.5,13.5,M,18.8,M,,0000*6B
$GPGSA,A,3,27,11,19,08,28,03,,,,,,,2.6,1.5,2.1*3D
$GPRMC,052246.063,A,3731.4181,N,12644.8798,E,0.00,,131205,,,A*77
$GPGGA,052247.063,3731.4181,N,12644.8798,E,1,06,1.5,13.5,M,18.8,M,,0000*6A
$GPGSA,A,3,27,11,19,08,28,03,,,,,,,2.6,1.5,2.1*3D
$GPRMC,052247.063,A,3731.4181,N,12644.8798,E,0.00,,131205,,,A*76
$GPGGA,052248.063,3731.4181,N,12644.8798,E,1,06,1.5,13.5,M,18.8,M,,0000*65
$GPGSA,A,3,27,11,19,08,28,03,,,,,,,2.6,1.5,2.1*3D
$GPRMC,052248.063,A,3731.4181,N,12644.8798,E,0.00,,131205,,,A*79
$GPGGA,052249.063,3731.4181,N,12644.8798,E,1,06,1.5,13.5,M,18.8,M,,0000*64
$GPGSA,A,3,27,11,19,08,28,03,,,,,,,2.6,1.5,2.1*3D
$GPRMC,052249.063,A,3731.4181,N,12644.8798,E,0.00,,131205,,,A*78
$GPGGA,052250.063,3731.4176,N,12644.8803,E,1,06,1.5,11.1,M,18.8,M,,0000*6F
$GPGSA,A,3,27,11,19,08,28,03,,,,,,,2.6,1.5,2.1*3D
$GPGSV,3,1,09,11,81,176,28,19,46,052,35,08,44,273,29,27,40,232,29*76
$GPGSV,3,2,09,28,33,312,27,03,15,077,37,24,13,212,25,20,10,160,11*7B
$GPGSV,3,3,09,22,05,038,13*4C
$GPRMC,052250.063,A,3731.4176,N,12644.8803,E,2.19,109.45,131205,,,A*68
$GPGGA,052251.063,3731.4176,N,12644.8812,E,1,06,1.5,10.2,M,18.8,M,,0000*6C
$GPGSA,A,3,27,11,19,08,28,03,,,,,,,2.6,1.5,2.1*3D
$GPRMC,052251.063,A,3731.4176,N,12644.8812,E,2.28,82.40,131205,,,A*5C
$GPGGA,052252.063,3731.4177,N,12644.8818,E,1,06,1.5,9.7,M,18.8,M,,0000*59
$GPGSA,A,3,27,11,19,08,28,03,,,,,,,2.6,1.5,2.1*3D
$GPRMC,052252.063,A,3731.4177,N,12644.8818,E,3.01,86.42,131205,,,A*58
$GPGGA,052253.063,3731.4177,N,12644.8829,E,1,06,1.5,9.8,M,18.8,M,,0000*55
$GPGSA,A,3,27,11,19,08,28,03,,,,,,,2.6,1.5,2.1*3D
$GPRMC,052253.063,A,3731.4177,N,12644.8829,E,3.57,92.99,131205,,,A*5B
$GPGGA,052254.063,3731.4178,N,12644.8839,E,1,06,1.5,10.2,M,18.8,M,,0000*6E
$GPGSA,A,3,27,11,19,08,28,03,,,,,,,2.6,1.5,2.1*3D
$GPRMC,052254.063,A,3731.4178,N,12644.8839,E,1.83,78.97,131205,,,A*53
$GPGGA,052255.063,3731.4179,N,12644.8845,E,1,06,1.5,10.2,M,18.8,M,,0000*65
$GPGSA,A,3,27,11,19,08,28,03,,,,,,,2.6,1.5,2.1*3D
$GPGSV,3,1,09,11,81,176,29,19,46,052,34,08,44,273,28,27,40,232,28*76
$GPGSV,3,2,09,28,33,312,31,03,15,077,30,24,13,212,28,20,10,160,24*70
$GPGSV,3,3,09,22,05,038,23*4F
$GPRMC,052255.063,A,3731.4179,N,12644.8845,E,0.00,,131205,,,A*7D
$GPGGA,052256.063,3731.4179,N,12644.8845,E,1,06,1.5,10.2,M,18.8,M,,0000*66
$GPGSA,A,3,27,11,19,08,28,03,,,,,,,2.6,1.5,2.1*3D
$GPRMC,052256.063,A,3731.4179,N,12644.8845,E,0.00,,131205,,,A*7E
$GPGGA,052257.063,3731.4179,N,12644.8845,E,1,06,1.5,10.2,M,18.8,M,,0000*67
$GPGSA,A,3,27,11,19,08,28,03,,,,,,,2.6,1.5,2.1*3D
$GPRMC,052257.063,A,3731.4179,N,12644.8845,E,0.00,,131205,,,A*7F
$GPGGA,052258.063,3731.4179,N,12644.8845,E,1,06,1.5,10.2,M,18.8,M,,0000*68
$GPGSA,A,3,27,11,19,08,28,03,,,,,,,2.6,1.5,2.1*3D
$GPRMC,052258.063,A,3731.4179,N,12644.8845,E,0.00,,131205,,,A*70
$GPGGA,052259.063,3731.4179,N,12644.8845,E,1,06,1.5,10.2,M,18.8,M,,0000*69
$GPGSA,A,3,27,11,19,08,28,03,,,,,,,2.6,1.5,2.1*3D
$GPRMC,052259.063,A,3731.4179,N,12644.8845,E,0.00,,131205,,,A*71
$GPGGA,052300.062,3731.4179,N,12644.8845,E,1,05,1.5,10.2,M,18.8,M,,0000*66
$GPGSA,A,3,27,11,19,28,03,,,,,,,,2.6,1.5,2.1*35
$GPGSV,3,1,09,11,81,176,30,19,46,052,35,08,44,273,30,27,40,232,29*77
$GPGSV,3,2,09,28,33,312,29,03,15,077,30,24,13,212,30,20,10,160,21*75
$GPGSV,3,3,09,22,05,038,16*49
$GPRMC,052300.062,A,3731.4179,N,12644.8845,E,0.00,,131205,,,A*7D
$GPGGA,052301.062,3731.4179,N,12644.8845,E,1,06,1.5,10.2,M,18.8,M,,0000*64
$GPGSA,A,3,27,11,19,08,28,03,,,,,,,2.6,1.5,2.1*3D
$GPRMC,052301.062,A,3731.4179,N,12644.8845,E,0.00,,131205,,,A*7C
$GPGGA,052302.062,3731.4179,N,12644.8845,E,1,06,1.5,10.2,M,18.8,M,,0000*67
$GPGSA,A,3,27,11,19,08,28,03,,,,,,,2.6,1.5,2.1*3D
$GPRMC,052302.062,A,3731.4179,N,12644.8845,E,0.00,,131205,,,A*7F
$GPGGA,052303.062,3731.4179,N,12644.8845,E,1,05,1.6,10.2,M,18.8,M,,0000*66
$GPGSA,A,3,27,19,08,28,03,,,,,,,,3.6,1.6,3.3*3C
$GPRMC,052303.062,A,3731.4179,N,12644.8845,E,0.00,,131205,,,A*7E
$GPGGA,052304.062,3731.4179,N,12644.8845,E,1,06,1.5,10.2,M,18.8,M,,0000*61
$GPGSA,A,3,27,11,19,08,28,03,,,,,,,2.6,1.5,2.1*3D
$GPRMC,052304.062,A,3731.4179,N,12644.8845,E,0.00,,131205,,,A*79
$GPGGA,052305.062,3731.4179,N,12644.8845,E,1,06,1.5,10.2,M,18.8,M,,0000*60
$GPGSA,A,3,27,11,19,08,28,03,,,,,,,2.6,1.5,2.1*3D
$GPGSV,3,1,09,11,81,176,29,19,46,052,35,08,44,273,31,27,40,232,26*71
$GPGSV,3,2,09,28,33,312,27,03,15,077,31,24,13,212,29,20,10,160,21*72
$GPGSV,3,3,09,22,05,038,21*4D
$GPRMC,052305.062,A,3731.4179,N,12644.8845,E,0.00,,131205,,,A*78
$GPGGA,052306.062,3731.4179,N,12644.8845,E,1,06,1.5,10.2,M,18.8,M,,0000*63
$GPGSA,A,3,27,11,19,08,28,03,,,,,,,2.6,1.5,2.1*3D
$GPRMC,052306.062,A,3731.4179,N,12644.8845,E,0.00,,131205,,,A*7B
$GPGGA,052307.062,3731.4179,N,12644.8845,E,1,06,1.5,10.2,M,18.8,M,,0000*62
$GPGSA,A,3,27,11,19,08,28,03,,,,,,,2.6,1.5,2.1*3D
$GPRMC,052307.062,A,3731.4179,N,12644.8845,E,0.00,,131205,,,A*7A
$GPGGA,052308.062,3731.4179,N,12644.8845,E,1,06,1.5,10.2,M,18.8,M,,0000*6D
$GPGSA,A,3,27,11,19,08,28,03,,,,,,,2.6,1.5,2.1*3D
$GPRMC,052308.062,A,3731.4179,N,12644.8845,E,0.00,,131205,,,A*75
$GPGGA,052309.062,3731.4172,N,12644.8848,E,1,06,1.5,10.0,M,18.8,M,,0000*68
$GPGSA,A,3,27,11,19,08,28,03,,,,,,,2.6,1.5,2.1*3D
$GPRMC,052309.062,A,3731.4172,N,12644.8848,E,2.18,108.64,131205,,,A*6C
$GPGGA,052310.062,3731.4173,N,12644.8858,E,1,06,1.5,9.8,M,18.8,M,,0000*50
$GPGSA,A,3,27,11,19,08,28,03,,,,,,,2.6,1.5,2.1*3D
$GPGSV,3,1,09,11,81,176,27,19,46,052,34,08,44,273,30,27,40,232,31*79
$GPGSV,3,2,09,28,33,312,26,03,15,077,25,24,13,212,28,20,10,160,23*75
$GPGSV,3,3,09,22,05,038,17*48
$GPRMC,052310.062,A,3731.4173,N,12644.8858,E,4.36,89.09,131205,,,A*5D
$GPGGA,052311.062,3731.4170,N,12644.8885,E,1,05,1.7,9.8,M,18.8,M,,0000*53
$GPGSA,A,3,27,11,08,28,03,,,,,,,,3.0,1.7,2.5*34
$GPRMC,052311.062,A,3731.4170,N,12644.8885,E,6.16,92.91,131205,,,A*54
$GPGGA,052312.062,3731.4164,N,12644.8909,E,1,06,1.5,9.8,M,18.8,M,,0000*51
$GPGSA,A,3,27,11,19,08,28,03,,,,,,,2.6,1.5,2.1*3D
$GPRMC,052312.062,A,3731.4164,N,12644.8909,E,6.23,93.27,131205,,,A*5D
$GPGGA,052313.062,3731.4163,N,12644.8934,E,1,06,1.5,10.7,M,18.8,M,,0000*6E
$GPGSA,A,3,27,11,19,08,28,03,,,,,,,2.6,1.5,2.1*3D
$GPRMC,052313.062,A,3731.4163,N,12644.8934,E,5.75,85.23,131205,,,A*56
$GPGGA,052314.062,3731.4163,N,12644.8952,E,1,06,1.5,10.5,M,18.8,M,,0000*6B
$GPGSA,A,3,27,11,19,08,28,03,,,,,,,2.6,1.5,2.1*3D
$GPRMC,052314.062,A,3731.4163,N,12644.8952,E,4.97,95.39,131205,,,A*56
$GPGGA,052315.062,3731.4164,N,12644.8969,E,1,06,1.5,11.1,M,18.8,M,,0000*60
$GPGSA,A,3,27,11,19,08,28,03,,,,,,,2.6,1.5,2.1*3D
$GPGSV,3,1,09,11,81,175,30,19,46,053,31,08,44,273,33,27,40,232,34*7E
$GPGSV,3,2,09,28,34,312,26,03,15,077,19,24,13,212,25,20,10,160,32*70
$GPGSV,3,3,09,22,05,038,21*4D
$GPRMC,052315.062,A,3731.4164,N,12644.8969,E,2.49,95.11,131205,,,A*57
$GPGGA,052316.061,3731.4164,N,12644.8977,E,1,06,1.5,11.2,M,18.8,M,,0000*6C
$GPGSA,A,3,27,11,19,08,28,03,,,,,,,2.6,1.5,2.1*3D
$GPRMC,052316.061,A,3731.4164,N,12644.8977,E,0.00,,131205,,,A*75
$GPGGA,052317.061,3731.4164,N,12644.8977,E,1,06,1.5,11.2,M,18.8,M,,0000*6D
$GPGSA,A,3,27,11,19,08,28,03,,,,,,,2.6,1.5,2.1*3D
$GPRMC,052317.061,A,3731.4164,N,12644.8977,E,0.00,,131205,,,A*74
$GPGGA,052318.061,3731.4164,N,12644.8977,E,1,06,1.5,11.2,M,18.8,M,,0000*62
$GPGSA,A,3,27,11,19,08,28,03,,,,,,,2.6,1.5,2.1*3D
$GPRMC,052318.061,A,3731.4164,N,12644.8977,E,0.00,,131205,,,A*7B
$GPGGA,052319.061,3731.4164,N,12644.8977,E,1,05,2.2,11.2,M,18.8,M,,0000*64
$GPGSA,A,3,11,19,08,28,03,,,,,,,,3.3,2.2,2.5*3C
$GPRMC,052319.061,A,3731.4164,N,12644.8977,E,0.00,,131205,,,A*7A
$GPGGA,052320.061,3731.4164,N,12644.8977,E,1,05,2.3,11.2,M,18.8,M,,0000*6F
$GPGSA,A,3,27,11,19,08,03,,,,,,,,3.2,2.3,2.2*34
$GPGSV,3,1,09,11,81,175,28,19,46,053,28,08,44,273,37,27,40,232,25*7B
$GPGSV,3,2,09,28,34,312,22,03,15,077,21,24,13,212,29,20,10,160,33*72
$GPGSV,3,3,09,22,05,037,22*41
$GPRMC,052320.061,A,3731.4164,N,12644.8977,E,0.00,,131205,,,A*70
$GPGGA,052321.061,3731.4164,N,12644.8977,E,1,06,1.5,11.2,M,18.8,M,,0000*68
$GPGSA,A,3,27,11,19,08,28,03,,,,,,,2.6,1.5,2.1*3D
$GPRMC,052321.061,A,3731.4164,N,12644.8977,E,0.00,,131205,,,A*71
$GPGGA,052322.061,3731.4164,N,12644.8977,E,1,06,1.5,11.2,M,18.8,M,,0000*6B
$GPGSA,A,3,27,11,19,08,28,03,,,,,,,2.6,1.5,2.1*3D
$GPRMC,052322.061,A,3731.4164,N,12644.8977,E,0.00,,131205,,,A*72
$GPGGA,052323.061,3731.4164,N,12644.8977,E,1,06,1.5,11.2,M,18.8,M,,0000*6A
$GPGSA,A,3,27,11,19,08,28,03,,,,,,,2.6,1.5,2.1*3D
$GPRMC,052323.061,A,3731.4164,N,12644.8977,E,0.00,,131205,,,A*73
$GPGGA,052324.061,3731.4164,N,12644.8984,E,1,06,1.5,11.3,M,18.8,M,,0000*60
$GPGSA,A,3,27,11,19,08,28,03,,,,,,,2.6,1.5,2.1*3D
$GPRMC,052324.061,A,3731.4164,N,12644.8984,E,3.32,85.12,131205,,,A*5A
$GPGGA,052325.061,3731.4171,N,12644.9001,E,1,06,1.5,13.0,M,18.8,M,,0000*61
$GPGSA,A,3,27,11,19,08,28,03,,,,,,,2.6,1.5,2.1*3D
$GPGSV,3,1,09,11,81,175,20,19,46,053,19,08,44,273,31,27,40,232,30*73
$GPGSV,3,2,09,28,34,312,29,03,15,077,36,24,13,212,25,20,10,160,20*71
$GPGSV,3,3,09,22,05,037,26*45
$GPRMC,052325.061,A,3731.4171,N,12644.9001,E,5.14,85.24,131205,,,A*5D
$GPGGA,052326.061,3731.4175,N,12644.9014,E,1,06,1.5,13.3,M,18.8,M,,0000*61
$GPGSA,A,3,27,11,19,08,28,03,,,,,,,2.6,1.5,2.1*3D
$GPRMC,052326.061,A,3731.4175,N,12644.9014,E,3.44,63.32,131205,,,A*52
$GPGGA,052327.061,3731.4179,N,12644.9025,E,1,04,4.2,13.5,M,18.8,M,,0000*68
$GPGSA,A,3,27,08,28,03,,,,,,,,,16.4,4.2,15.9*3E
$GPRMC,052327.061,A,3731.4179,N,12644.9025,E,0.00,,131205,,,A*74
$GPGGA,052328.061,3731.4179,N,12644.9025,E,1,05,1.6,13.5,M,18.8,M,,0000*67
$GPGSA,A,3,27,19,08,28,03,,,,,,,,3.6,1.6,3.3*3C
$GPRMC,052328.061,A,3731.4179,N,12644.9025,E,0.00,,131205,,,A*7B
$GPGGA,052329.061,3731.4179,N,12644.9025,E,1,04,4.2,13.5,M,18.8,M,,0000*66
$GPGSA,A,3,27,08,28,03,,,,,,,,,16.4,4.2,15.9*3E
$GPRMC,052329.061,A,3731.4179,N,12644.9025,E,0.00,,131205,,,A*7A
$GPGGA,052330.061,3731.4179,N,12644.9025,E,1,04,4.2,13.5,M,18.8,M,,0000*6E
$GPGSA,A,3,27,08,28,03,,,,,,,,,16.5,4.2,15.9*3F
$GPGSV,3,1,09,11,81,175,11,19,46,053,14,08,44,273,32,27,40,232,30*7F
$GPGSV,3,2,09,28,34,312,26,03,15,077,35,24,13,212,29,20,10,160,15*77
$GPGSV,3,3,09,22,05,037,27*44
$GPRMC,052330.061,A,3731.4179,N,12644.9025,E,0.00,,131205,,,A*72
$GPGGA,052331.061,3731.4179,N,12644.9025,E,1,04,4.2,13.5,M,18.8,M,,0000*6F
$GPGSA,A,3,27,08,28,03,,,,,,,,,16.5,4.2,15.9*3F
$GPRMC,052331.061,A,3731.4179,N,12644.9025,E,0.00,,131205,,,A*73
$GPGGA,052332.061,3731.4180,N,12644.9029,E,1,03,24.1,13.1,M,18.8,M,,0000*54
$GPGSA,A,2,08,03,22,,,,,,,,,,50.0,24.1,50.0*0F
$GPRMC,052332.061,A,3731.4180,N,12644.9029,E,2.22,58.05,131205,,,A*5E
$GPGGA,052333.060,3731.4186,N,12644.9038,E,1,03,24.1,13.0,M,18.8,M,,0000*53
$GPGSA,A,2,08,03,22,,,,,,,,,,50.0,24.1,50.0*0F
$GPRMC,052333.060,A,3731.4186,N,12644.9038,E,3.69,53.81,131205,,,A*51
$GPGGA,052334.060,3731.4194,N,12644.9061,E,1,06,1.5,14.3,M,18.8,M,,0000*69
$GPGSA,A,3,27,11,19,08,28,03,,,,,,,2.6,1.5,2.1*3D
$GPRMC,052334.060,A,3731.4194,N,12644.9061,E,6.55,64.96,131205,,,A*51
$GPGGA,052335.060,3731.4202,N,12644.9093,E,1,06,1.5,14.3,M,18.8,M,,0000*69
$GPGSA,A,3,27,11,19,08,28,03,,,,,,,2.6,1.5,2.1*3D
$GPGSV,3,1,09,11,81,175,27,19,46,053,36,08,44,273,27,27,40,232,28*77
$GPGSV,3,2,09,28,34,312,25,03,15,077,37,24,13,212,18,20,10,160,29*7B
$GPGSV,3,3,09,22,05,037,31*43
$GPRMC,052335.060,A,3731.4202,N,12644.9093,E,9.62,69.21,131205,,,A*5B
$GPGGA,052336.060,3731.4205,N,12644.9163,E,1,06,1.5,14.7,M,18.8,M,,0000*67
$GPGSA,A,3,27,11,19,08,28,03,,,,,,,2.6,1.5,2.1*3D
$GPRMC,052336.060,A,3731.4205,N,12644.9163,E,17.52,79.19,131205,,,A*67
$GPGGA,052337.060,3731.4205,N,12644.9265,E,1,06,1.5,16.7,M,18.8,M,,0000*61
$GPGSA,A,3,27,11,19,08,28,03,,,,,,,2.6,1.5,2.1*3D
$GPRMC,052337.060,A,3731.4205,N,12644.9265,E,19.56,81.22,131205,,,A*66
$GPGGA,052338.060,3731.4234,N,12644.9341,E,1,06,1.5,16.3,M,18.8,M,,0000*6F
$GPGSA,A,3,27,11,19,08,28,03,,,,,,,2.6,1.5,2.1*3D
$GPRMC,052338.060,A,3731.4234,N,12644.9341,E,21.49,82.41,131205,,,A*6F
$GPGGA,052339.060,3731.4248,N,12644.9425,E,1,06,1.5,16.3,M,18.8,M,,0000*60
$GPGSA,A,3,27,11,19,08,28,03,,,,,,,2.6,1.5,2.1*3D
$GPRMC,052339.060,A,3731.4248,N,12644.9425,E,23.54,82.45,131205,,,A*6A
$GPGGA,052340.060,3731.4262,N,12644.9518,E,1,06,1.5,16.4,M,18.8,M,,0000*6E
$GPGSA,A,3,27,11,19,08,28,03,,,,,,,2.6,1.5,2.1*3D
$GPGSV,3,1,09,11,81,175,30,19,46,053,35,08,44,273,33,27,40,232,32*7C
$GPGSV,3,2,09,28,34,312,31,03,15,077,34,24,13,212,26,20,10,160,32*7A
$GPGSV,3,3,09,22,05,037,32*40
$GPRMC,052340.060,A,3731.4262,N,12644.9518,E,25.74,81.44,131205,,,A*65
$GPGGA,052341.060,3731.4273,N,12644.9616,E,1,06,1.5,15.4,M,18.8,M,,0000*61
$GPGSA,A,3,27,11,19,08,28,03,,,,,,,2.6,1.5,2.1*3D
$GPRMC,052341.060,A,3731.4273,N,12644.9616,E,27.91,80.43,131205,,,A*66
$GPGGA,052342.060,3731.4290,N,12644.9714,E,1,06,1.5,14.9,M,18.8,M,,0000*60
$GPGSA,A,3,27,11,19,08,28,03,,,,,,,2.6,1.5,2.1*3D
$GPRMC,052342.060,A,3731.4290,N,12644.9714,E,29.65,79.78,131205,,,A*60
$GPGGA,052343.060,3731.4306,N,12644.9824,E,1,06,1.5,15.8,M,18.8,M,,0000*63
$GPGSA,A,3,27,11,19,08,28,03,,,,,,,2.6,1.5,2.1*3D
$GPRMC,052343.060,A,3731.4306,N,12644.9824,E,30.80,79.95,131205,,,A*63
$GPGGA,052344.060,3731.4318,N,12644.9931,E,1,06,1.5,15.2,M,18.8,M,,0000*64
$GPGSA,A,3,27,11,19,08,28,03,,,,,,,2.6,1.5,2.1*3D
$GPRMC,052344.060,A,3731.4318,N,12644.9931,E,31.95,80.77,131205,,,A*61
$GPGGA,052345.060,3731.4326,N,12645.0044,E,1,06,1.5,14.4,M,18.8,M,,0000*6C
$GPGSA,A,3,27,11,19,08,28,03,,,,,,,2.6,1.5,2.1*3D
$GPGSV,3,1,09,11,81,175,31,19,46,053,36,08,44,272,33,27,40,232,33*7E
$GPGSV,3,2,09,28,34,312,33,03,15,077,35,24,14,212,28,20,11,159,32*7B
$GPGSV,3,3,09,22,05,037,30*42
$GPRMC,052345.060,A,3731.4326,N,12645.0044,E,33.12,81.91,131205,,,A*6A
$GPGGA,052346.060,3731.4336,N,12645.0167,E,1,06,1.5,15.2,M,18.8,M,,0000*69
$GPGSA,A,3,27,11,19,08,28,03,,,,,,,2.6,1.5,2.1*3D
$GPRMC,052346.060,A,3731.4336,N,12645.0167,E,34.36,83.35,131205,,,A*65
$GPGGA,052347.060,3731.4341,N,12645.0291,E,1,06,1.5,15.0,M,18.8,M,,0000*60
$GPGSA,A,3,27,11,19,08,28,03,,,,,,,2.6,1.5,2.1*3D
$GPRMC,052347.060,A,3731.4341,N,12645.0291,E,35.51,85.38,131205,,,A*65
$GPGGA,052348.060,3731.4345,N,12645.0421,E,1,06,1.5,14.8,M,18.8,M,,0000*6F
$GPGSA,A,3,27,11,19,08,28,03,,,,,,,2.6,1.5,2.1*3D
$GPRMC,052348.060,A,3731.4345,N,12645.0421,E,36.98,87.33,131205,,,A*6C
$GPGGA,052349.059,3731.4347,N,12645.0556,E,1,06,1.5,16.1,M,18.8,M,,0000*6C
$GPGSA,A,3,27,11,19,08,28,03,,,,,,,2.6,1.5,2.1*3D
$GPRMC,052349.059,A,3731.4347,N,12645.0556,E,38.15,88.39,131205,,,A*6A
$GPGGA,052350.059,3731.4349,N,12645.0692,E,1,06,1.5,17.4,M,18.8,M,,0000*65
$GPGSA,A,3,27,11,19,08,28,03,,,,,,,2.6,1.5,2.1*3D
$GPGSV,3,1,09,11,81,175,29,19,46,053,32,08,44,272,29,27,40,232,29*73
$GPGSV,3,2,09,28,34,312,22,03,15,077,24,24,14,212,23,20,11,159,14*74
$GPGSV,3,3,09,22,05,037,14*44
$GPRMC,052350.059,A,3731.4349,N,12645.0692,E,38.93,88.51,131205,,,A*67
$GPGGA,052351.059,3731.4350,N,12645.0828,E,1,05,1.7,16.8,M,18.8,M,,0000*6F
$GPGSA,A,3,27,11,08,28,03,,,,,,,,3.0,1.7,2.4*35
$GPRMC,052351.059,A,3731.4350,N,12645.0828,E,38.90,90.26,131205,,,A*6B
$GPGGA,052352.059,3731.4351,N,12645.0966,E,1,04,2.6,16.9,M,18.8,M,,0000*64
$GPGSA,A,3,19,08,03,22,,,,,,,,,3.7,2.6,2.6*35
$GPRMC,052352.059,A,3731.4351,N,12645.0966,E,39.53,88.48,131205,,,A*6D
$GPGGA,052353.059,3731.4351,N,12645.1104,E,1,04,3.5,16.1,M,18.8,M,,0000*62
$GPGSA,A,3,11,19,03,22,,,,,,,,,4.7,3.5,3.2*3D
$GPRMC,052353.059,A,3731.4351,N,12645.1104,E,40.56,90.23,131205,,,A*6E
$GPGGA,052354.059,3731.4346,N,12645.1243,E,1,05,2.2,16.4,M,18.8,M,,0000*61
$GPGSA,A,3,11,19,08,28,03,,,,,,,,3.3,2.2,2.4*3D
$GPRMC,052354.059,A,3731.4346,N,12645.1243,E,40.23,92.73,131205,,,A*6A
$GPGGA,052355.059,3731.4344,N,12645.1384,E,1,05,2.2,15.4,M,18.8,M,,0000*6B
$GPGSA,A,3,11,19,08,28,03,,,,,,,,3.3,2.2,2.4*3D
$GPGSV,3,1,09,11,81,174,27,19,46,053,32,08,44,272,28,27,40,232,28*7C
$GPGSV,3,2,09,28,34,312,20,03,15,077,35,24,14,212,15,20,11,159,29*7D
$GPGSV,3,3,09,22,05,037,31*43
$GPRMC,052355.059,A,3731.4344,N,12645.1384,E,41.13,91.14,131205,,,A*63
$GPGGA,052356.059,3731.4341,N,12645.1532,E,1,04,3.2,13.5,M,18.8,M,,0000*61
$GPGSA,A,3,11,19,08,03,,,,,,,,,4.0,3.2,2.5*33
$GPRMC,052356.059,A,3731.4341,N,12645.1532,E,41.79,90.52,131205,,,A*61
$GPGGA,052357.059,3731.4338,N,12645.1675,E,1,04,3.2,11.9,M,18.8,M,,0000*60
$GPGSA,A,3,11,19,08,03,,,,,,,,,4.0,3.2,2.5*33
$GPRMC,052357.059,A,3731.4338,N,12645.1675,E,42.01,90.30,131205,,,A*66
$GPGGA,052358.059,3731.4337,N,12645.1822,E,1,06,1.5,11.5,M,18.8,M,,0000*67
$GPGSA,A,3,27,11,19,08,28,03,,,,,,,2.6,1.5,2.1*3D
$GPRMC,052358.059,A,3731.4337,N,12645.1822,E,42.81,90.09,131205,,,A*68
$GPGGA,052359.059,3731.4336,N,12645.1972,E,1,06,1.5,11.1,M,18.8,M,,0000*67
$GPGSA,A,3,27,11,19,08,28,03,,,,,,,2.6,1.5,2.1*3D
$GPRMC,052359.059,A,3731.4336,N,12645.1972,E,43.43,89.99,131205,,,A*62
$GPGGA,052400.059,3731.4334,N,12645.2120,E,1,06,1.5,10.6,M,18.8,M,,0000*64
$GPGSA,A,3,27,11,19,08,28,03,,,,,,,2.6,1.5,2.1*3D
$GPGSV,3,1,09,11,81,174,26,19,46,053,33,08,44,272,28,27,40,232,29*7D
$GPGSV,3,2,09,28,34,312,22,03,15,077,35,24,14,212,15,20,11,159,30*77
$GPGSV,3,3,09,22,05,037,29*4A
$GPRMC,052400.059,A,3731.4334,N,12645.2120,E,43.43,89.02,131205,,,A*65
$GPGGA,052401.059,3731.4329,N,12645.2285,E,1,06,1.5,9.8,M,18.8,M,,0000*53
$GPGSA,A,3,27,11,19,08,28,03,,,,,,,2.6,1.5,2.1*3D
$GPRMC,052401.059,A,3731.4329,N,12645.2285,E,44.14,89.76,131205,,,A*62
$GPGGA,052402.059,3731.4330,N,12645.2444,E,1,06,1.5,9.6,M,18.8,M,,0000*5D
$GPGSA,A,3,27,11,19,08,28,03,,,,,,,2.6,1.5,2.1*3D
$GPRMC,052402.059,A,3731.4330,N,12645.2444,E,44.47,89.55,131205,,,A*65
$GPGGA,052403.059,3731.4331,N,12645.2603,E,1,06,1.5,8.9,M,18.8,M,,0000*52
$GPGSA,A,3,27,11,19,08,28,03,,,,,,,2.6,1.5,2.1*3D
$GPRMC,052403.059,A,3731.4331,N,12645.2603,E,45.03,89.72,131205,,,A*60
$GPGGA,052404.059,3731.4333,N,12645.2761,E,1,06,1.5,8.5,M,18.8,M,,0000*5E
$GPGSA,A,3,27,11,19,08,28,03,,,,,,,2.6,1.5,2.1*3D
$GPRMC,052404.059,A,3731.4333,N,12645.2761,E,45.35,89.33,131205,,,A*60
$GPGGA,052405.059,3731.4331,N,12645.2930,E,1,06,1.5,8.3,M,18.8,M,,0000*51
$GPGSA,A,3,27,11,19,08,28,03,,,,,,,2.6,1.5,2.1*3D
$GPGSV,3,1,09,11,81,174,28,19,46,053,34,08,44,272,29,27,40,232,30*7D
$GPGSV,3,2,09,28,34,312,24,03,15,077,35,24,14,212,23,20,11,159,30*74
$GPGSV,3,3,09,22,05,037,31*43
$GPRMC,052405.059,A,3731.4331,N,12645.2930,E,45.70,89.63,131205,,,A*6D
$GPGGA,052406.058,3731.4331,N,12645.3085,E,1,05,2.4,5.4,M,18.8,M,,0000*5E
$GPGSA,A,3,27,11,19,08,03,,,,,,,,3.2,2.4,2.2*33
$GPRMC,052406.058,A,3731.4331,N,12645.3085,E,44.98,89.38,131205,,,A*60
$GPGGA,052407.058,3731.4330,N,12645.3242,E,1,06,1.5,9.0,M,18.8,M,,0000*5E
$GPGSA,A,3,27,11,19,08,28,03,,,,,,,2.6,1.5,2.1*3D
$GPRMC,052407.058,A,3731.4330,N,12645.3242,E,44.24,89.94,131205,,,A*68
$GPGGA,052408.058,3731.4328,N,12645.3391,E,1,06,1.5,11.2,M,18.8,M,,0000*6C
$GPGSA,A,3,27,11,19,08,28,03,,,,,,,2.6,1.5,2.1*3D
$GPRMC,052408.058,A,3731.4328,N,12645.3391,E,42.41,89.19,131205,,,A*61
$GPGGA,052409.058,3731.4329,N,12645.3535,E,1,07,1.1,14.2,M,18.8,M,,0000*64
$GPGSA,A,3,27,11,19,08,28,03,20,,,,,,2.0,1.1,1.7*38
$GPRMC,052409.058,A,3731.4329,N,12645.3535,E,42.54,89.77,131205,,,A*65
$GPGGA,052410.058,3731.4334,N,12645.3684,E,1,07,1.1,13.3,M,18.8,M,,0000*6F
$GPGSA,A,3,27,11,19,08,28,03,20,,,,,,2.0,1.1,1.7*38
$GPGSV,3,1,09,11,81,174,28,19,46,053,34,08,44,272,29,27,40,232,29*75
$GPGSV,3,2,09,28,34,312,21,03,15,077,36,24,14,212,23,20,11,159,29*7A
$GPGSV,3,3,09,22,05,037,32*40
$GPRMC,052410.058,A,3731.4334,N,12645.3684,E,42.94,89.99,131205,,,A*64
$GPGGA,052411.058,3731.4338,N,12645.3835,E,1,07,1.1,11.5,M,18.8,M,,0000*62
$GPGSA,A,3,27,11,19,08,28,03,20,,,,,,2.0,1.1,1.7*38
$GPRMC,052411.058,A,3731.4338,N,12645.3835,E,42.89,89.87,131205,,,A*6E
$GPGGA,052412.058,3731.4341,N,12645.3986,E,1,07,1.1,10.9,M,18.8,M,,0000*6B
$GPGSA,A,3,27,11,19,08,28,03,20,,,,,,2.0,1.1,1.7*38
$GPRMC,052412.058,A,3731.4341,N,12645.3986,E,41.96,89.76,131205,,,A*69
$GPGGA,052413.058,3731.4345,N,12645.4127,E,1,07,1.1,10.0,M,18.8,M,,0000*63
$GPGSA,A,3,27,11,19,08,28,03,20,,,,,,2.0,1.1,1.7*38
$GPRMC,052413.058,A,3731.4345,N,12645.4127,E,41.25,88.77,131205,,,A*60
$GPGGA,052414.058,3731.4350,N,12645.4267,E,1,07,1.1,10.8,M,18.8,M,,0000*6F
$GPGSA,A,3,27,11,19,08,28,03,20,,,,,,2.0,1.1,1.7*38
$GPRMC,052414.058,A,3731.4350,N,12645.4267,E,40.65,88.52,131205,,,A*66
$GPGGA,052415.058,3731.4357,N,12645.4408,E,1,07,1.1,10.5,M,18.8,M,,0000*6B
$GPGSA,A,3,27,11,19,08,28,03,20,,,,,,2.0,1.1,1.7*38
$GPGSV,3,1,09,11,81,174,26,19,46,053,28,08,44,272,31,27,40,232,30*77
$GPGSV,3,2,09,28,34,312,26,03,15,077,27,24,14,212,28,20,11,159,21*7E
$GPGSV,3,3,09,22,05,037,30*42
$GPRMC,052415.058,A,3731.4357,N,12645.4408,E,40.62,89.18,131205,,,A*67
$GPGGA,052416.058,3731.4358,N,12645.4550,E,1,06,1.3,10.7,M,18.8,M,,0000*6A
$GPGSA,A,3,27,19,08,28,03,20,,,,,,,3.2,1.3,2.9*34
$GPRMC,052416.058,A,3731.4358,N,12645.4550,E,40.54,90.00,131205,,,A*63
$GPGGA,052417.058,3731.4355,N,12645.4692,E,1,07,1.1,10.9,M,18.8,M,,0000*66
$GPGSA,A,3,27,11,19,08,28,03,20,,,,,,2.0,1.1,1.7*38
$GPRMC,052417.058,A,3731.4355,N,12645.4692,E,40.99,91.47,131205,,,A*61
$GPGGA,052418.058,3731.4354,N,12645.4830,E,1,07,1.1,11.3,M,18.8,M,,0000*65
$GPGSA,A,3,27,11,19,08,28,03,20,,,,,,2.0,1.1,1.7*38
$GPRMC,052418.058,A,3731.4354,N,12645.4830,E,38.71,89.82,131205,,,A*60
$GPGGA,052419.058,3731.4349,N,12645.4970,E,1,07,1.1,17.3,M,18.8,M,,0000*6B
$GPGSA,A,3,27,11,19,08,28,03,20,,,,,,2.0,1.1,1.7*38
$GPRMC,052419.058,A,3731.4349,N,12645.4970,E,37.49,90.27,131205,,,A*6B
$GPGGA,052420.058,3731.4341,N,12645.5101,E,1,07,1.1,22.5,M,18.8,M,,0000*66
$GPGSA,A,3,27,11,19,08,28,03,20,,,,,,2.0,1.1,1.7*38
$GPGSV,3,1,09,11,81,174,28,19,46,053,33,08,44,272,29,27,40,232,28*73
$GPGSV,3,2,09,28,34,312,24,03,15,077,35,24,14,212,29,20,11,159,33*7D
$GPGSV,3,3,09,22,05,037,31*43
$GPRMC,052420.058,A,3731.4341,N,12645.5101,E,35.41,93.27,131205,,,A*6F
$GPGGA,052421.058,3731.4333,N,12645.5214,E,1,07,1.1,24.1,M,18.8,M,,0000*67
$GPGSA,A,3,27,11,19,08,28,03,20,,,,,,2.0,1.1,1.7*38
$GPRMC,052421.058,A,3731.4333,N,12645.5214,E,33.88,97.13,131205,,,A*6C
$GPGGA,052422.057,3731.4316,N,12645.5325,E,1,07,1.1,24.4,M,18.8,M,,0000*6A
$GPGSA,A,3,27,11,19,08,28,03,20,,,,,,2.0,1.1,1.7*38
$GPRMC,052422.057,A,3731.4316,N,12645.5325,E,32.54,103.83,131205,,,A*51
$GPGGA,052423.057,3731.4287,N,12645.5408,E,1,07,1.1,24.0,M,18.8,M,,0000*6E
$GPGSA,A,3,27,11,19,08,28,03,20,,,,,,2.0,1.1,1.7*38
$GPRMC,052423.057,A,3731.4287,N,12645.5408,E,29.77,116.22,131205,,,A*55
$GPGGA,052424.057,3731.4224,N,12645.5447,E,1,07,1.1,23.1,M,18.8,M,,0000*6D
$GPGSA,A,3,27,11,19,08,28,03,20,,,,,,2.0,1.1,1.7*38
$GPRMC,052424.057,A,3731.4224,N,12645.5447,E,27.97,134.48,131205,,,A*5C
$GPGGA,052425.057,3731.4159,N,12645.5488,E,1,07,1.1,21.4,M,18.8,M,,0000*61
$GPGSA,A,3,27,11,19,08,28,03,20,,,,,,2.0,1.1,1.7*38
$GPGSV,3,1,09,11,81,174,36,19,46,053,30,08,44,272,34,27,40,232,34*7E
$GPGSV,3,2,09,28,34,312,25,03,15,077,27,24,14,212,32,20,11,159,32*74
$GPGSV,3,3,09,22,05,037,17*47
$GPRMC,052425.057,A,3731.4159,N,12645.5488,E,27.97,146.57,131205,,,A*5C
$GPGGA,052426.057,3731.4089,N,12645.5524,E,1,08,1.0,22.7,M,18.8,M,,0000*67
$GPGSA,A,3,27,11,19,08,28,03,24,20,,,,,1.9,1.0,1.6*34
$GPRMC,052426.057,A,3731.4089,N,12645.5524,E,26.77,158.73,131205,,,A*52
$GPGGA,052427.057,3731.4004,N,12645.5535,E,1,08,1.0,21.4,M,18.8,M,,0000*63
$GPGSA,A,3,27,11,19,08,28,03,24,20,,,,,1.9,1.0,1.6*34
$GPRMC,052427.057,A,3731.4004,N,12645.5535,E,27.05,172.12,131205,,,A*5D
$GPGGA,052428.057,3731.3920,N,12645.5525,E,1,08,1.0,22.9,M,18.8,M,,0000*6B
$GPGSA,A,3,27,11,19,08,28,03,24,20,,,,,1.9,1.0,1.6*34
$GPRMC,052428.057,A,3731.3920,N,12645.5525,E,27.31,185.93,131205,,,A*5D
$GPGGA,052429.057,3731.3845,N,12645.5498,E,1,08,1.0,24.6,M,18.8,M,,0000*66
$GPGSA,A,3,27,11,19,08,28,03,24,20,,,,,1.9,1.0,1.6*34
$GPRMC,052429.057,A,3731.3845,N,12645.5498,E,28.15,198.96,131205,,,A*59
$GPGGA,052430.057,3731.3779,N,12645.5456,E,1,08,1.0,27.5,M,18.8,M,,0000*6C
$GPGSA,A,3,27,11,19,08,28,03,24,20,,,,,1.9,1.0,1.6*34
$GPGSV,3,1,09,11,81,174,35,19,46,053,34,08,44,272,35,27,40,232,35*79
$GPGSV,3,2,09,28,34,312,35,03,15,077,16,24,14,212,36,20,11,159,35*74
$GPGSV,3,3,09,22,05,037,28*4B
$GPRMC,052430.057,A,3731.3779,N,12645.5456,E,27.37,209.15,131205,,,A*5C
$GPGGA,052431.057,3731.3729,N,12645.5400,E,1,07,1.2,27.1,M,18.8,M,,0000*62
$GPGSA,A,3,27,11,19,08,28,24,20,,,,,,2.2,1.2,1.8*33
$GPRMC,052431.057,A,3731.3729,N,12645.5400,E,26.33,220.08,131205,,,A*59
$GPGGA,052432.057,3731.3681,N,12645.5324,E,1,07,1.2,28.4,M,18.8,M,,0000*69
$GPGSA,A,3,27,11,19,08,28,24,20,,,,,,2.2,1.2,1.8*33
$GPRMC,052432.057,A,3731.3681,N,12645.5324,E,26.81,232.83,131205,,,A*51
$GPGGA,052433.057,3731.3647,N,12645.5182,E,1,07,1.2,25.3,M,18.8,M,,0000*66
$GPGSA,A,3,27,11,19,08,28,24,20,,,,,,2.2,1.2,1.8*33
$GPRMC,052433.057,A,3731.3647,N,12645.5182,E,27.34,247.63,131205,,,A*57
$GPGGA,052434.057,3731.3641,N,12645.5063,E,1,07,1.2,25.8,M,18.8,M,,0000*62
$GPGSA,A,3,27,11,19,08,28,24,20,,,,,,2.2,1.2,1.8*33
$GPRMC,052434.057,A,3731.3641,N,12645.5063,E,27.86,263.39,131205,,,A*58
$GPGGA,052435.057,3731.3651,N,12645.4957,E,1,06,1.4,27.0,M,18.8,M,,0000*60
$GPGSA,A,3,27,11,19,08,28,24,,,,,,,2.6,1.4,2.2*3A
$GPGSV,3,1,09,11,81,174,30,19,46,053,33,08,44,272,34,27,40,232,34*7B
$GPGSV,3,2,09,28,34,312,33,03,15,077,09,24,14,212,28,20,11,159,20*77
$GPGSV,3,3,09,22,05,037,19*49
$GPRMC,052435.057,A,3731.3651,N,12645.4957,E,28.31,273.44,131205,,,A*5F
$GPGGA,052436.057,3731.3674,N,12645.4857,E,1,06,1.4,27.8,M,18.8,M,,0000*6D
$GPGSA,A,3,27,11,19,08,28,24,,,,,,,2.6,1.4,2.2*3A
$GPRMC,052436.057,A,3731.3674,N,12645.4857,E,28.29,281.20,131205,,,A*5C
$GPGGA,052437.057,3731.3706,N,12645.4768,E,1,05,2.0,24.7,M,18.8,M,,0000*63
$GPGSA,A,3,27,11,19,08,28,,,,,,,,4.7,2.0,4.3*3B
$GPRMC,052437.057,A,3731.3706,N,12645.4768,E,26.68,289.87,131205,,,A*54
$GPGGA,052438.057,3731.3735,N,12645.4685,E,1,05,2.0,23.7,M,18.8,M,,0000*69
$GPGSA,A,3,27,11,19,08,28,,,,,,,,4.7,2.0,4.3*3B
$GPRMC,052438.057,A,3731.3735,N,12645.4685,E,25.42,293.45,131205,,,A*57
$GPGGA,052439.056,3731.3777,N,12645.4612,E,1,05,2.0,23.3,M,18.8,M,,0000*65
$GPGSA,A,3,27,11,19,08,28,,,,,,,,4.7,2.0,4.3*3B
$GPRMC,052439.056,A,3731.3777,N,12645.4612,E,25.14,301.94,131205,,,A*5A
$GPGGA,052440.056,3731.3880,N,12645.4567,E,1,06,1.3,20.4,M,18.8,M,,0000*6A
$GPGSA,A,3,27,11,19,08,28,20,,,,,,,2.3,1.3,2.0*3E
$GPGSV,3,1,09,11,81,174,33,19,46,053,37,08,44,272,36,27,40,232,31*7B
$GPGSV,3,2,09,28,34,312,36,03,15,077,30,24,14,212,23,20,11,159,27*74
$GPGSV,3,3,09,22,05,037,16*46
$GPRMC,052440.056,A,3731.3880,N,12645.4567,E,27.75,322.35,131205,,,A*5D
$GPGGA,052441.056,3731.3992,N,12645.4568,E,1,08,1.0,20.3,M,18.8,M,,0000*6C
$GPGSA,A,3,27,11,19,08,28,03,24,20,,,,,1.9,1.0,1.6*34
$GPRMC,052441.056,A,3731.3992,N,12645.4568,E,29.57,341.12,131205,,,A*5F
$GPGGA,052442.056,3731.4088,N,12645.4550,E,1,08,1.0,18.7,M,18.8,M,,0000*6E
$GPGSA,A,3,27,11,19,08,28,03,24,20,,,,,1.9,1.0,1.6*34
$GPRMC,052442.056,A,3731.4088,N,12645.4550,E,30.35,346.85,131205,,,A*57
$GPGGA,052443.056,3731.4183,N,12645.4536,E,1,08,1.0,16.9,M,18.8,M,,0000*65
$GPGSA,A,3,27,11,19,08,28,03,24,20,,,,,1.9,1.0,1.6*34
$GPRMC,052443.056,A,3731.4183,N,12645.4536,E,31.59,349.57,131205,,,A*57
$GPGGA,052444.056,3731.4280,N,12645.4518,E,1,07,1.1,16.5,M,18.8,M,,0000*6C
$GPGSA,A,3,27,11,19,08,28,03,20,,,,,,2.1,1.1,1.7*39
$GPRMC,052444.056,A,3731.4280,N,12645.4518,E,32.53,351.27,131205,,,A*5B
$GPGGA,052445.056,3731.4375,N,12645.4500,E,1,07,1.1,15.8,M,18.8,M,,0000*61
$GPGSA,A,3,27,11,19,08,28,03,20,,,,,,2.1,1.1,1.7*39
$GPGSV,3,1,09,11,81,174,33,19,46,053,35,08,44,272,35,27,40,232,36*7D
$GPGSV,3,2,09,28,34,312,36,03,15,077,34,24,14,212,13,20,11,159,26*72
$GPGSV,3,3,09,22,05,037,30*42
$GPRMC,052445.056,A,3731.4375,N,12645.4500,E,33.46,351.35,131205,,,A*5E
$GPGGA,052446.056,3731.4474,N,12645.4488,E,1,07,1.1,15.8,M,18.8,M,,0000*65
$GPGSA,A,3,27,11,19,08,28,03,20,,,,,,2.1,1.1,1.7*39
$GPRMC,052446.056,A,3731.4474,N,12645.4488,E,35.42,351.64,131205,,,A*5C
$GPGGA,052447.056,3731.4576,N,12645.4467,E,1,08,1.0,15.0,M,18.8,M,,0000*60
$GPGSA,A,3,27,11,19,08,28,03,24,20,,,,,1.9,1.0,1.6*34
$GPRMC,052447.056,A,3731.4576,N,12645.4467,E,36.69,350.89,131205,,,A*57
$GPGGA,052448.056,3731.4679,N,12645.4457,E,1,08,1.0,13.1,M,18.8,M,,0000*67
$GPGSA,A,3,27,11,19,08,28,03,24,20,,,,,1.9,1.0,1.6*34
$GPRMC,052448.056,A,3731.4679,N,12645.4457,E,36.64,351.72,131205,,,A*5F
$GPGGA,052449.056,3731.4783,N,12645.4453,E,1,07,1.1,10.7,M,18.8,M,,0000*6D
$GPGSA,A,3,27,11,19,08,28,03,20,,,,,,2.1,1.1,1.7*39
$GPRMC,052449.056,A,3731.4783,N,12645.4453,E,36.56,351.54,131205,,,A*5B
$GPGGA,052450.056,3731.4890,N,12645.4438,E,1,08,1.0,9.1,M,18.8,M,,0000*55
$GPGSA,A,3,27,11,19,08,28,03,24,20,,,,,1.9,1.0,1.6*34
$GPGSV,3,1,09,11,82,173,35,19,45,053,36,08,44,272,34,27,39,231,35*70
$GPGSV,3,2,09,28,34,313,35,03,14,077,33,24,14,213,15,20,11,159,23*74
$GPGSV,3,3,09,22,05,037,27*44
$GPRMC,052450.056,A,3731.4890,N,12645.4438,E,36.12,351.21,131205,,,A*51
$GPGGA,052451.056,3731.4989,N,12645.4420,E,1,08,1.0,8.7,M,18.8,M,,0000*53
$GPGSA,A,3,27,11,19,08,28,03,24,20,,,,,1.9,1.0,1.6*34
$GPRMC,052451.056,A,3731.4989,N,12645.4420,E,37.49,351.35,131205,,,A*5A
$GPGGA,052452.056,3731.5089,N,12645.4405,E,1,08,1.0,8.5,M,18.8,M,,0000*5D
$GPGSA,A,3,27,11,19,08,28,03,24,20,,,,,1.9,1.0,1.6*34
$GPRMC,052452.056,A,3731.5089,N,12645.4405,E,37.15,351.09,131205,,,A*50
$GPGGA,052453.056,3731.5192,N,12645.4389,E,1,08,1.0,7.9,M,18.8,M,,0000*57
$GPGSA,A,3,27,11,19,08,28,03,24,20,,,,,1.9,1.0,1.6*34
$GPRMC,052453.056,A,3731.5192,N,12645.4389,E,36.06,351.82,131205,,,A*59
$GPGGA,052454.056,3731.5299,N,12645.4358,E,1,08,1.0,13.2,M,18.8,M,,0000*6A
$GPGSA,A,3,27,11,19,08,28,03,24,20,,,,,1.9,1.0,1.6*34
$GPRMC,052454.056,A,3731.5299,N,12645.4358,E,36.40,351.18,131205,,,A*5B
$GPGGA,052455.055,3731.5395,N,12645.4330,E,1,08,1.0,13.5,M,18.8,M,,0000*6C
$GPGSA,A,3,27,11,19,08,28,03,24,20,,,,,1.9,1.0,1.6*34
$GPGSV,3,1,09,11,82,173,31,19,45,053,35,08,44,272,35,27,39,231,36*75
$GPGSV,3,2,09,28,34,313,34,03,14,077,30,24,14,213,18,20,11,159,27*7F
$GPGSV,3,3,09,22,05,037,27*44
$GPRMC,052455.055,A,3731.5395,N,12645.4330,E,35.82,350.64,131205,,,A*5D
$GPGGA,052456.055,3731.5494,N,12645.4304,E,1,08,1.0,13.7,M,18.8,M,,0000*6C
$GPGSA,A,3,27,11,19,08,28,03,24,20,,,,,1.9,1.0,1.6*34
$GPRMC,052456.055,A,3731.5494,N,12645.4304,E,36.04,350.34,131205,,,A*57
$GPGGA,052457.055,3731.5598,N,12645.4274,E,1,08,1.0,14.5,M,18.8,M,,0000*63
$GPGSA,A,3,27,11,19,08,28,03,24,20,,,,,1.9,1.0,1.6*34
$GPRMC,052457.055,A,3731.5598,N,12645.4274,E,36.33,348.42,131205,,,A*51
$GPGGA,052458.055,3731.5688,N,12645.4232,E,1,08,1.0,14.2,M,18.8,M,,0000*6B
$GPGSA,A,3,27,11,19,08,28,03,24,20,,,,,1.9,1.0,1.6*34
$GPRMC,052458.055,A,3731.5688,N,12645.4232,E,37.02,344.57,131205,,,A*55
$GPGGA,052459.055,3731.5789,N,12645.4186,E,1,08,1.0,15.0,M,18.8,M,,0000*65
$GPGSA,A,3,27,11,19,08,28,03,24,20,,,,,1.9,1.0,1.6*34
$GPRMC,052459.055,A,3731.5789,N,12645.4186,E,37.82,340.45,131205,,,A*57
$GPGGA,052500.055,3731.5892,N,12645.4135,E,1,08,1.0,15.1,M,18.8,M,,0000*64
$GPGSA,A,3,27,11,19,08,28,03,24,20,,,,,1.9,1.0,1.6*34
$GPGSV,3,1,09,11,82,173,30,19,45,053,36,08,44,272,38,27,39,231,31*7D
$GPGSV,3,2,09,28,34,313,36,03,14,077,28,24,14,213,24,20,11,159,28*74
$GPGSV,3,3,09,22,05,037,20*43
$GPRMC,052500.055,A,3731.5892,N,12645.4135,E,38.23,336.94,131205,,,A*5E
$GPGGA,052501.055,3731.5991,N,12645.4079,E,1,08,1.0,15.5,M,18.8,M,,0000*6A
$GPGSA,A,3,27,11,19,08,28,03,24,20,,,,,1.9,1.0,1.6*34
$GPRMC,052501.055,A,3731.5991,N,12645.4079,E,37.82,330.61,131205,,,A*5C
$GPGGA,052502.055,3731.6083,N,12645.4003,E,1,08,1.0,15.4,M,18.8,M,,0000*6C
$GPGSA,A,3,27,11,19,08,28,03,24,20,,,,,1.9,1.0,1.6*34
$GPRMC,052502.055,A,3731.6083,N,12645.4003,E,37.22,326.99,131205,,,A*51
$GPGGA,052503.055,3731.6168,N,12645.3928,E,1,07,1.2,15.4,M,18.8,M,,0000*63
$GPGSA,A,3,27,11,19,08,28,03,24,,,,,,2.0,1.2,1.6*3E
$GPRMC,052503.055,A,3731.6168,N,12645.3928,E,36.04,322.53,131205,,,A*54
$GPGGA,052504.055,3731.6249,N,12645.3842,E,1,08,1.0,14.7,M,18.8,M,,0000*66
$GPGSA,A,3,27,11,19,08,28,03,24,20,,,,,1.9,1.0,1.6*34
$GPRMC,052504.055,A,3731.6249,N,12645.3842,E,36.76,319.59,131205,,,A*59
$GPGGA,052505.055,3731.6328,N,12645.3752,E,1,08,1.0,14.4,M,18.8,M,,0000*6C
$GPGSA,A,3,27,11,19,08,28,03,24,20,,,,,1.9,1.0,1.6*34
$GPGSV,3,1,09,11,82,173,30,19,45,053,36,08,44,272,32,27,39,231,29*7E
$GPGSV,3,2,09,28,34,313,33,03,14,077,24,24,14,213,23,20,11,159,18*79
$GPGSV,3,3,09,22,05,037,28*4B
$GPRMC,052505.055,A,3731.6328,N,12645.3752,E,37.40,318.92,131205,,,A*52
$GPGGA,052506.055,3731.6406,N,12645.3662,E,1,08,1.0,14.4,M,18.8,M,,0000*66
$GPGSA,A,3,27,11,19,08,28,03,24,20,,,,,1.9,1.0,1.6*34
$GPRMC,052506.055,A,3731.6406,N,12645.3662,E,38.25,317.33,131205,,,A*50
$GPGGA,052507.055,3731.6486,N,12645.3568,E,1,08,1.0,15.4,M,18.8,M,,0000*67
$GPGSA,A,3,27,11,19,08,28,03,24,20,,,,,1.9,1.0,1.6*34
$GPRMC,052507.055,A,3731.6486,N,12645.3568,E,38.88,315.99,131205,,,A*55
$GPGGA,052508.055,3731.6561,N,12645.3474,E,1,08,1.0,16.5,M,18.8,M,,0000*6E
$GPGSA,A,3,27,11,19,08,28,03,24,20,,,,,1.9,1.0,1.6*34
$GPRMC,052508.055,A,3731.6561,N,12645.3474,E,38.11,316.07,131205,,,A*5A
$GPGGA,052509.055,3731.6638,N,12645.3381,E,1,08,1.0,19.3,M,18.8,M,,0000*64
$GPGSA,A,3,27,11,19,08,28,03,24,20,,,,,1.9,1.0,1.6*34
$GPRMC,052509.055,A,3731.6638,N,12645.3381,E,37.13,315.70,131205,,,A*57
$GPGGA,052510.055,3731.6707,N,12645.3289,E,1,08,1.0,19.7,M,18.8,M,,0000*6C
$GPGSA,A,3,27,11,19,08,28,03,24,20,,,,,1.9,1.0,1.6*34
$GPGSV,3,1,09,11,82,173,29,19,45,053,36,08,44,272,33,27,39,231,35*7A
$GPGSV,3,2,09,28,34,313,35,03,14,077,27,24,14,213,19,20,11,159,17*7A
$GPGSV,3,3,09,22,05,037,27*44
$GPRMC,052510.055,A,3731.6707,N,12645.3289,E,36.80,314.57,131205,,,A*54
$GPGGA,052511.055,3731.6775,N,12645.3191,E,1,07,1.2,20.1,M,18.8,M,,0000*63
$GPGSA,A,3,27,11,19,08,28,03,24,,,,,,2.0,1.2,1.6*3E
$GPRMC,052511.055,A,3731.6775,N,12645.3191,E,36.42,310.32,131205,,,A*53
$GPGGA,052512.054,3731.6837,N,12645.3089,E,1,07,1.2,21.3,M,18.8,M,,0000*63
$GPGSA,A,3,27,11,19,08,28,03,24,,,,,,2.0,1.2,1.6*3E
$GPRMC,052512.054,A,3731.6837,N,12645.3089,E,36.34,308.70,131205,,,A*5E
$GPGGA,052513.054,3731.6894,N,12645.2983,E,1,07,1.2,22.4,M,18.8,M,,0000*6D
$GPGSA,A,3,27,11,19,08,28,03,24,,,,,,2.0,1.2,1.6*3E
$GPRMC,052513.054,A,3731.6894,N,12645.2983,E,36.70,306.37,131205,,,A*59
$GPGGA,052514.054,3731.6947,N,12645.2878,E,1,07,1.2,22.6,M,18.8,M,,0000*62
$GPGSA,A,3,27,11,19,08,28,03,24,,,,,,2.0,1.2,1.6*3E
$GPRMC,052514.054,A,3731.6947,N,12645.2878,E,36.83,304.05,131205,,,A*5B
$GPGGA,052515.054,3731.7002,N,12645.2769,E,1,07,1.2,22.7,M,18.8,M,,0000*64
$GPGSA,A,3,27,11,19,08,28,03,24,,,,,,2.0,1.2,1.6*3E
$GPGSV,3,1,09,11,82,173,29,19,45,053,35,08,44,272,36,27,39,231,30*79
$GPGSV,3,2,09,28,34,313,34,03,14,077,29,24,14,213,27,20,11,159,14*7B
$GPGSV,3,3,09,22,05,037,26*45
$GPRMC,052515.054,A,3731.7002,N,12645.2769,E,37.07,300.20,131205,,,A*52
$GPGGA,052516.054,3731.7050,N,12645.2664,E,1,06,1.4,24.4,M,18.8,M,,0000*6E
$GPGSA,A,3,27,11,19,08,28,24,,,,,,,2.6,1.4,2.2*3A
$GPRMC,052516.054,A,3731.7050,N,12645.2664,E,36.50,297.53,131205,,,A*52
$GPGGA,052517.054,3731.7097,N,12645.2548,E,1,07,1.2,28.0,M,18.8,M,,0000*66
$GPGSA,A,3,27,11,19,08,28,03,24,,,,,,2.0,1.2,1.6*3E
$GPRMC,052517.054,A,3731.7097,N,12645.2548,E,37.44,293.71,131205,,,A*55
$GPGGA,052518.054,3731.7134,N,12645.2429,E,1,08,1.0,29.2,M,18.8,M,,0000*69
$GPGSA,A,3,27,11,19,08,28,03,24,20,,,,,1.9,1.0,1.6*34
$GPRMC,052518.054,A,3731.7134,N,12645.2429,E,36.83,290.33,131205,,,A*5B
$GPGGA,052519.054,3731.7165,N,12645.2297,E,1,08,1.0,33.6,M,18.8,M,,0000*60
$GPGSA,A,3,27,11,19,08,28,03,24,20,,,,,1.9,1.0,1.6*34
$GPRMC,052519.054,A,3731.7165,N,12645.2297,E,37.56,288.00,131205,,,A*5D
$GPGGA,052520.054,3731.7190,N,12645.2169,E,1,08,1.0,36.2,M,18.8,M,,0000*63
$GPGSA,A,3,27,11,19,08,28,03,24,20,,,,,1.9,1.0,1.6*34
$GPGSV,3,1,09,11,82,172,29,19,45,053,35,08,44,271,35,27,39,231,34*7C
$GPGSV,3,2,09,28,34,313,31,24,14,213,29,03,14,077,18,20,11,159,23*76
$GPGSV,3,3,09,22,05,037,19*49
$GPRMC,052520.054,A,3731.7190,N,12645.2169,E,37.68,285.10,131205,,,A*5E
$GPGGA,052521.054,3731.7210,N,12645.2041,E,1,08,1.0,37.6,M,18.8,M,,0000*67
$GPGSA,A,3,27,11,19,08,28,03,24,20,,,,,1.9,1.0,1.6*34
$GPRMC,052521.054,A,3731.7210,N,12645.2041,E,37.05,281.27,131205,,,A*54
$GPGGA,052522.054,3731.7218,N,12645.1912,E,1,08,1.0,37.7,M,18.8,M,,0000*61
$GPGSA,A,3,27,11,19,08,28,03,24,20,,,,,1.9,1.0,1.6*34
$GPRMC,052522.054,A,3731.7218,N,12645.1912,E,35.64,275.79,131205,,,A*56
$GPGGA,052523.054,3731.7218,N,12645.1789,E,1,08,1.0,38.4,M,18.8,M,,0000*60
$GPGSA,A,3,27,11,19,08,28,03,24,20,,,,,1.9,1.0,1.6*34
$GPRMC,052523.054,A,3731.7218,N,12645.1789,E,35.62,269.93,131205,,,A*54
$GPGGA,052524.054,3731.7205,N,12645.1669,E,1,08,1.0,37.9,M,18.8,M,,0000*66
$GPGSA,A,3,27,11,19,08,28,03,24,20,,,,,1.9,1.0,1.6*34
$GPRMC,052524.054,A,3731.7205,N,12645.1669,E,34.83,264.04,131205,,,A*5D
$GPGGA,052525.054,3731.7178,N,12645.1545,E,1,08,1.0,39.6,M,18.8,M,,0000*62
$GPGSA,A,3,27,11,19,08,28,03,24,20,,,,,1.9,1.0,1.6*34
$GPGSV,3,1,09,11,82,172,34,19,45,053,31,08,44,271,35,27,39,231,38*78
$GPGSV,3,2,09,28,34,313,37,24,14,213,33,03,14,077,27,20,11,159,18*7F
$GPGSV,3,3,09,22,05,037,15*45
$GPRMC,052525.054,A,3731.7178,N,12645.1545,E,35.41,257.71,131205,,,A*55
$GPGGA,052526.054,3731.7144,N,12645.1439,E,1,08,1.0,41.0,M,18.8,M,,0000*6D
$GPGSA,A,3,27,11,19,08,28,03,24,20,,,,,1.9,1.0,1.6*34
$GPRMC,052526.054,A,3731.7144,N,12645.1439,E,35.32,251.41,131205,,,A*52
$GPGGA,052527.054,3731.7104,N,12645.1332,E,1,08,1.0,39.2,M,18.8,M,,0000*69
$GPGSA,A,3,27,11,19,08,28,03,24,20,,,,,1.9,1.0,1.6*34
$GPRMC,052527.054,A,3731.7104,N,12645.1332,E,34.71,245.52,131205,,,A*5A
$GPGGA,052528.053,3731.7058,N,12645.1224,E,1,08,1.0,37.0,M,18.8,M,,0000*63
$GPGSA,A,3,27,11,19,08,28,03,24,20,,,,,1.9,1.0,1.6*34
$GPRMC,052528.053,A,3731.7058,N,12645.1224,E,35.75,241.02,131205,,,A*58
$GPGGA,052529.053,3731.7006,N,12645.1119,E,1,08,1.0,35.2,M,18.8,M,,0000*64
$GPGSA,A,3,27,11,19,08,28,03,24,20,,,,,1.9,1.0,1.6*34
$GPRMC,052529.053,A,3731.7006,N,12645.1119,E,35.52,234.84,131205,,,A*56
$GPGGA,052530.053,3731.6930,N,12645.1022,E,1,07,1.2,35.2,M,18.8,M,,0000*65
$GPGSA,A,3,27,11,19,08,28,24,20,,,,,,2.2,1.2,1.9*32
$GPGSV,3,1,09,11,82,172,35,19,45,053,29,08,44,271,36,27,39,231,37*7C
$GPGSV,3,2,09,28,34,313,32,24,14,213,35,03,14,077,14,20,11,159,29*7E
$GPGSV,3,3,09,22,05,037,21*42
$GPRMC,052530.053,A,3731.6930,N,12645.1022,E,35.39,228.33,131205,,,A*56
$GPGGA,052531.053,3731.6855,N,12645.0937,E,1,08,1.0,37.1,M,18.8,M,,0000*66
